name,Location,URL,Avg Stars,Your Stars,Route Type,grade,Pitches,Length,Area Latitude,Area Longitude,id
The Nose,2. Southwest Face > B. El Capitan > Valley North Side > Yosemite Valley > Yosemite National Park > California,https://www.mountainproject.com/route/105924807/the-nose,3.9,-1,"Trad, Aid",5.9 C2,31,3000,37.73051,-119.63828,1
Snake Dike,4. Southwest Face > D. Half Dome > Valley South Side > Yosemite Valley > Yosemite National Park > California,https://www.mountainproject.com/route/105836362/snake-dike,3.6,-1,Trad,5.7 R,8,2000,37.73971,-119.54003,2
Flyboys,Goat Wall > Mazama > Okanogan > Washington,https://www.mountainproject.com/route/113665378/flyboys,3.2,-1,Sport,5.9,18,1800,48.62285,-120.44865,3
Regular Northwest Face of Half Dome (RNWF),1. Northwest Face > D. Half Dome > Valley South Side > Yosemite Valley > Yosemite National Park > California,https://www.mountainproject.com/route/105912416/regular-northwest-face-of-half-dome-rnwf,3.9,-1,"Trad, Aid",5.9 C1,23,2200,37.74685,-119.5336,4
Epinephrine,Black Velvet Wall > (16) Black Velvet Canyon > Red Rocks > Southern Nevada > Nevada,https://www.mountainproject.com/route/105732422/epinephrine,3.9,-1,Trad,5.9,13,1600,36.03518,-115.46652,5
Salathé Wall,2. Southwest Face > B. El Capitan > Valley North Side > Yosemite Valley > Yosemite National Park > California,https://www.mountainproject.com/route/106154042/salathe-wall,3.9,-1,"Trad, Aid",5.9 C2,35,3500,37.73051,-119.63828,6
Matthes Crest Traverse - South to North,Matthes Crest > Cathedral Range > Tuolumne Meadows > Yosemite National Park > California,https://www.mountainproject.com/route/106008982/matthes-crest-traverse-south-to-north,3.9,-1,"Trad, Alpine",5.7,1,2500,37.8186,-119.3992,7
Corrugation Corner,Main Wall > Main Formation > Lover's Leap > Highway 50 Corridor > Lake Tahoe > California,https://www.mountainproject.com/route/105872293/corrugation-corner,3.9,-1,Trad,5.7,3,300,38.80006,-120.13522,8
The Spirit of Squamish,Shannon Falls Wall > Shannon Falls > Squamish > British Columbia > Canada > North America > International,https://www.mountainproject.com/route/120765388/the-spirit-of-squamish,3.5,-1,Trad,5.8,8,700,49.66932,-123.15753,9
Moby Grape,4. Moby Grape Area > *Cannon Cliff > New Hampshire,https://www.mountainproject.com/route/105884815/moby-grape,3.8,-1,"Trad, Alpine",5.8 PG13,7,800,44.15838,-71.6846,10
The Moonlight Buttress (Clean Aid),Moonlight Buttress > Zion National Park > Southwest Utah > Utah,https://www.mountainproject.com/route/105717718/the-moonlight-buttress-clean-aid,3.7,-1,"Trad, Aid",5.8 C1,10,1200,37.27785,-112.94955,11
Lower Exum Ridge,Grand Teton > Grand Teton National Park > Wyoming,https://www.mountainproject.com/route/105839153/lower-exum-ridge,3.9,-1,"Trad, Alpine",5.7,6,800,43.74092,-110.80253,12
Rewritten,Redgarden - Lumpe to the top > Redgarden Wall > Eldorado Canyon State Park > Boulder > Colorado,https://www.mountainproject.com/route/105750106/rewritten,3.7,-1,Trad,5.7,6,650,39.93228,-105.28671,13
The Yellow Spur,Redgarden - Tower One > Redgarden Wall > Eldorado Canyon State Park > Boulder > Colorado,https://www.mountainproject.com/route/105748657/the-yellow-spur,3.8,-1,Trad,5.9+,6,,39.93194,-105.28603,14
Outer Space,"Snow Creek Wall > Snow Creek Area > Icicle Creek > Leavenworth > Central-East Cascades, Wenatchee, & Leavenworth > Washington",https://www.mountainproject.com/route/105793664/outer-space,3.8,-1,Trad,5.9,6,700,47.52963,-120.71869,15
The Bastille Crack,The Bastille - N Face > The Bastille > Eldorado Canyon State Park > Boulder > Colorado,https://www.mountainproject.com/route/105748490/the-bastille-crack,3.5,-1,Trad,5.7,5,350,39.9307,-105.283,16
Direct North Ridge,"Mt Stuart > Stuart-Enchantments > Central-East Cascades, Wenatchee, & Leavenworth > Washington",https://www.mountainproject.com/route/106245725/direct-north-ridge,3.9,-1,"Trad, Alpine",5.9+,20,2800,47.4773,-120.9022,17
North East Ridge,Bugaboo Spire > Bugaboos > Columbia-Shushwap > British Columbia > Canada > North America > International,https://www.mountainproject.com/route/105889511/north-east-ridge,3.9,-1,"Trad, Alpine",5.8,10,1500,50.74546,-116.78853,18
Northeast Face,Pingora > Cirque of the Towers > Wind River Range > Wyoming,https://www.mountainproject.com/route/105825209/northeast-face,3.8,-1,"Trad, Alpine",5.8+,12,1200,42.7789,-109.226,19
Durrance,Durrance Approach > Devils Tower > Wyoming,https://www.mountainproject.com/route/105714812/durrance,3.5,-1,Trad,5.7+,6,500,44.58978,-104.71537,20
Crimson Chrysalis,Cloud Tower > (11) Juniper Canyon > Red Rocks > Southern Nevada > Nevada,https://www.mountainproject.com/route/105732281/crimson-chrysalis,3.6,-1,Trad,5.8+,9,1000,36.11237,-115.48908,21
Playin' Hooky,Creek Side > Clear Creek Canyon > Golden > Colorado,https://www.mountainproject.com/route/106701638/playin-hooky,3.3,-1,Sport,5.8,4,400,39.74102,-105.41042,22
Central Pillar of Frenzy,6. Middle Cathedral Rock > P. Cathedral Area > Valley South Side > Yosemite Valley > Yosemite National Park > California,https://www.mountainproject.com/route/105862930/central-pillar-of-frenzy,3.8,-1,Trad,5.9,5,500,37.7165,-119.6363,23
Whitney Gilman Ridge,1. Whitney-Gilman Area > *Cannon Cliff > New Hampshire,https://www.mountainproject.com/route/105872668/whitney-gilman-ridge,3.7,-1,"Trad, Alpine",5.7,6,600,44.15597,-71.68713,24
The Grand Traverse,Grand Teton Traverses > Grand Teton National Park > Wyoming,https://www.mountainproject.com/route/106565238/the-grand-traverse,3.9,-1,"Trad, Alpine",5.8,1,12000,43.74026,-110.80425,25
"Tenaya, Matthes, Cathedral Traverse",Cathedral Range Enchainments > Cathedral Range > Tuolumne Meadows > Yosemite National Park > California,https://www.mountainproject.com/route/107677399/tenaya-matthes-cathedral-traverse,3.9,-1,"Trad, Alpine",5.7,1,4700,37.82733,-119.37442,26
East Buttress,Mt. Whitney > 14 - Whitney & Surrounding Peaks > High Sierra > California,https://www.mountainproject.com/route/105789686/east-buttress,3.7,-1,"Trad, Alpine",5.7,11,1000,36.57844,-118.29229,27
North Ridge,"Mt Stuart > Stuart-Enchantments > Central-East Cascades, Wenatchee, & Leavenworth > Washington",https://www.mountainproject.com/route/106050599/north-ridge,3.9,-1,"Trad, Alpine",5.9,18,1200,47.4773,-120.9022,28
South Face,Petit Grepon > RMNP - Rock > Alpine Rock > Colorado,https://www.mountainproject.com/route/105749770/south-face,3.7,-1,"Trad, Alpine",5.8,8,,40.28029,-105.6725,29
The Armadillo,"01. Chimney Pond (""South"") Basin - Summer Rock Routes > Katahdin > j. The Maine Highlands (inc. BSP / Katahdin ) > Maine",https://www.mountainproject.com/route/106020335/the-armadillo,3.7,-1,Trad,5.7,1,,45.91441,-68.91153,30
Dark Shadows,Dark Shadows Wall > Mescalito > (10) Pine Creek Canyon > Red Rocks > Southern Nevada > Nevada,https://www.mountainproject.com/route/105732380/dark-shadows,3.6,-1,Trad,5.8,4,350,36.12399,-115.49506,31
The Nutcracker Suite (aka Nutcracker),5. Manure Pile Buttress (aka Ranger Rock) > C. El Cap Picnic Area (Eagle Creek) > Valley North Side > Yosemite Valley > Yosemite National Park > California,https://www.mountainproject.com/route/105833505/the-nutcracker-suite-aka-nutcracker,3.6,-1,Trad,5.8,5,500,37.73059,-119.619,32
North Chimney,Castleton Tower > Castle Valley > Southeast Utah > Utah,https://www.mountainproject.com/route/105717307/north-chimney,3.6,-1,Trad,5.9,4,400,38.651,-109.3678,33
Bonnie's Roof,i. High E > The Trapps > The Gunks > New York,https://www.mountainproject.com/route/105801433/bonnies-roof,3.9,-1,Trad,5.9,2,250,41.74421,-74.179,34
Regular Route,North Face > Fairview Dome > Tuolumne Meadows > Yosemite National Park > California,https://www.mountainproject.com/route/105847227/regular-route,3.7,-1,Trad,5.9,12,1000,37.87279,-119.40427,35
Klahanie Crack,Shannon Falls Wall > Shannon Falls > Squamish > British Columbia > Canada > North America > International,https://www.mountainproject.com/route/105947052/klahanie-crack,3.6,-1,Trad,5.7,1,90,49.66932,-123.15753,36
Monkey Off My Back,(s) Monkey Face > Smith Rock > Central Oregon > Oregon,https://www.mountainproject.com/route/106811013/monkey-off-my-back,3.8,-1,Sport,5.8+,1,,44.37053,-121.14363,37
South Face,Charlotte Dome > 12 - Kearsarge Pass to Cedar Grove > High Sierra > California,https://www.mountainproject.com/route/105803532/south-face,3.8,-1,"Trad, Alpine",5.8,12,1500,36.78245,-118.48013,38
Center Route,Cynical Pinnacle > Cathedral Spires Area > South Platte > Colorado,https://www.mountainproject.com/route/105748816/center-route,3.9,-1,Trad,5.9+,3,,39.42059,-105.25164,39
Thunderbolt to Sill Traverse,Thunderbolt Peak > 09 - Palisades & Surrounding Peaks > High Sierra > California,https://www.mountainproject.com/route/106513790/thunderbolt-to-sill-traverse,3.9,-1,"Trad, Snow, Alpine",5.9 Easy Snow,1,5280,37.098,-118.5176,40
Star Chek,Galaxy Buttress > The Gorge > Sea to Sky (Squamish to Whistler) > British Columbia > Canada > North America > International,https://www.mountainproject.com/route/107104796/star-chek,3.5,-1,Sport,5.8+,4,400,49.924,-123.1675,41
Irene's Arete,Disappointment Peak > Grand Teton National Park > Wyoming,https://www.mountainproject.com/route/105804852/irenes-arete,3.8,-1,"Trad, Alpine",5.8,7,,43.73345,-110.79302,42
Igor Unchained,"The Witch > The Needles > Southern Sierra - The Needles, Kern River, Domelands, etc. > Southern-Western Sierra > California",https://www.mountainproject.com/route/105834219/igor-unchained,3.8,-1,Trad,5.9+,3,450,36.10721,-118.48021,43
Dark Shadows (Full),Dark Shadows Wall > Mescalito > (10) Pine Creek Canyon > Red Rocks > Southern Nevada > Nevada,https://www.mountainproject.com/route/109607912/dark-shadows-full,3.7,-1,Trad,5.8,10,1000,36.12399,-115.49506,44
Lowe Route,Question Mark Wall > Lone Peak Cirque > Central Wasatch > Wasatch Range > Utah,https://www.mountainproject.com/route/105741137/lowe-route,3.9,-1,"Trad, Alpine",5.8,3,,40.52459,-111.75637,45
Fishhook Arête,Mt. Russell > 14 - Whitney & Surrounding Peaks > High Sierra > California,https://www.mountainproject.com/route/105802684/fishhook-arete,3.8,-1,"Trad, Alpine",5.9,8,1000,36.59,-118.291,46
Flower of High Rank,(u) Northeast Buttress > Suicide Rock > Tahquitz & Suicide Rocks > California,https://www.mountainproject.com/route/105788563/flower-of-high-rank,3.9,-1,Trad,5.9,1,160,33.77158,-116.69558,47
Lurking Fear,2. Southwest Face > B. El Capitan > Valley North Side > Yosemite Valley > Yosemite National Park > California,https://www.mountainproject.com/route/106110258/lurking-fear,3.5,-1,"Trad, Aid",5.7 C2,19,2000,37.73051,-119.63828,48
Open Book,(h) Open Book Area > Tahquitz Rock > Tahquitz & Suicide Rocks > California,https://www.mountainproject.com/route/105794117/open-book,3.7,-1,Trad,5.9,3,490,33.75946,-116.68508,49
The Coffin,Coffin Buttress > Little Cottonwood Canyon > Central Wasatch > Wasatch Range > Utah,https://www.mountainproject.com/route/105740048/the-coffin,3.8,-1,Trad,5.9,1,80,40.57418,-111.77065,50
Big Bad Wolf,Riding Hood Wall > (01) Calico Basin > Red Rocks > Southern Nevada > Nevada,https://www.mountainproject.com/route/107339211/big-bad-wolf,3.1,-1,Sport,5.9,3,220,36.14947,-115.42673,51
Zoo View,Circus Wall > Sentinel Buttress > Moore's Wall (Routes) > Hanging Rock State Park > 3. Piedmont Region > North Carolina,https://www.mountainproject.com/route/105932744/zoo-view,3.8,-1,Trad,5.7+,2,220,36.3973,-80.2861,52
Cascading Crystal Kaleidoscope (CCK),h. The Arrow Wall - CCK > The Trapps > The Gunks > New York,https://www.mountainproject.com/route/105801065/cascading-crystal-kaleidoscope-cck,3.8,-1,Trad,5.8 PG13,3,250,41.74396,-74.17964,53
Bear's Reach,East Wall > Main Formation > Lover's Leap > Highway 50 Corridor > Lake Tahoe > California,https://www.mountainproject.com/route/105798294/bears-reach,3.4,-1,Trad,5.7,3,400,38.80261,-120.13204,54
On the Lamb,West Face of the Lamb > Lamb Dome > Tuolumne Meadows > Yosemite National Park > California,https://www.mountainproject.com/route/105862991/on-the-lamb,3.8,-1,Trad,5.9,4,,37.86932,-119.42588,55
White Punks on Dope,"Voodoo Dome > The Needles > Southern Sierra - The Needles, Kern River, Domelands, etc. > Southern-Western Sierra > California",https://www.mountainproject.com/route/105844453/white-punks-on-dope,3.8,-1,Trad,5.9- PG13,6,,36.10433,-118.47618,56
Conn Diagonal,Outer Outlet > Outlets > Sylvan Lake > Custer State Park > South Dakota,https://www.mountainproject.com/route/105714734/conn-diagonal,3.9,-1,Trad,5.7,3,300,43.84828,-103.56827,57
Walt Bailey Memorial,South and East Faces > Devils Tower > Wyoming,https://www.mountainproject.com/route/105715550/walt-bailey-memorial,3.9,-1,Trad,5.9,1,180,44.58986,-104.71457,58
Birdland,Brass Wall > (10) Pine Creek Canyon > Red Rocks > Southern Nevada > Nevada,https://www.mountainproject.com/route/105733115/birdland,3.4,-1,Trad,5.7+,6,600,36.12521,-115.49109,59
Dopey Duck,Shortoff Mountain > Linville Gorge > 2. Northern Mountains Region > North Carolina,https://www.mountainproject.com/route/105969252/dopey-duck,3.8,-1,Trad,5.9,3,350,35.83139,-81.90257,60
Recompense,The Prow Area > *Cathedral Ledge > New Hampshire,https://www.mountainproject.com/route/105880759/recompense,3.7,-1,Trad,5.9,3,400,44.06298,-71.1656,61
Son of Easy O,c. Frog's Head - the Arch > The Trapps > The Gunks > New York,https://www.mountainproject.com/route/105821512/son-of-easy-o,3.8,-1,Trad,5.8,2,170,41.73836,-74.18537,62
Whodunit,(d) Northwest Recess > Tahquitz Rock > Tahquitz & Suicide Rocks > California,https://www.mountainproject.com/route/105798191/whodunit,3.7,-1,Trad,5.9,8,800,33.76079,-116.68392,63
Super Crack,7) Thunder Buttress > Beauty Mountain > New River Gorge Proper > The New River Gorge Region > West Virginia,https://www.mountainproject.com/route/105949134/super-crack,3.9,-1,Trad,5.9+,1,100,38.05053,-81.03102,64
Roadside Attraction,Graining Fork Nature Preserve (a.k.a. Roadside Crag) > Natural Bridge Region > Red River Gorge > Kentucky,https://www.mountainproject.com/route/105860741/roadside-attraction,3.8,-1,Trad,5.7,2,120,37.73151,-83.65679,65
Pratt's Crack,Pratt's Crack / Dihedrals Area > Scheelite Canyon / Pratt's Crack Gully > Pine Creek Canyon > Bishop Area > Eastern Sierra > California,https://www.mountainproject.com/route/105957801/pratts-crack,3.8,-1,Trad,5.9,1,165,37.3843,-118.67756,66
Frogland,North Face > Whiskey Peak > (16) Black Velvet Canyon > Red Rocks > Southern Nevada > Nevada,https://www.mountainproject.com/route/105732398/frogland,3.6,-1,Trad,5.8,6,700,36.03509,-115.46345,67
Crack Attack,Indian Creek > Northern Gorge > Red River Gorge > Kentucky,https://www.mountainproject.com/route/106405603/crack-attack,3.8,-1,Trad,5.9+,1,80,37.8939,-83.63681,68
Lost Arrow Tip,Lost Arrow Spire > E. Yosemite Falls Area > Valley North Side > Yosemite Valley > Yosemite National Park > California,https://www.mountainproject.com/route/105912192/lost-arrow-tip,3.8,-1,"Trad, Aid",5.7 C2,2,250,37.75604,-119.5941,69
Penny Lane,Penny Lane > The Smoke Bluffs > Squamish > British Columbia > Canada > North America > International,https://www.mountainproject.com/route/105842825/penny-lane,3.6,-1,Trad,5.9,1,100,49.7049,-123.1378,70
Ruper,Redgarden - Tower One > Redgarden Wall > Eldorado Canyon State Park > Boulder > Colorado,https://www.mountainproject.com/route/105748774/ruper,3.6,-1,Trad,5.8+,6,240,39.93194,-105.28603,71
Vertigo,4. Moby Grape Area > *Cannon Cliff > New Hampshire,https://www.mountainproject.com/route/105888753/vertigo,3.8,-1,"Trad, Aid, Alpine",5.9 A0 R,4,500,44.15838,-71.6846,72
Pioneer Route,(s) Monkey Face > Smith Rock > Central Oregon > Oregon,https://www.mountainproject.com/route/105791058/pioneer-route,3.5,-1,"Trad, Sport, Aid",5.7 C0,5,250,44.37053,-121.14363,73
S-Direct,The Thumb Area > Little Cottonwood Canyon > Central Wasatch > Wasatch Range > Utah,https://www.mountainproject.com/route/105740654/s-direct,3.8,-1,Trad,5.9+ R,7,800,40.5746,-111.7574,74
Southwest Arete,Grandma Peabody Boulder > Peabody Boulders > Buttermilks Main > Buttermilk Country > Bishop Area > Eastern Sierra > California,https://www.mountainproject.com/route/105956126/southwest-arete,3.8,-1,"Trad, TR",5.9,1,50,37.32837,-118.57479,75
Pear Buttress,J-Crack Slab Area > The Book > Lumpy Ridge > Estes Park Valley > Colorado,https://www.mountainproject.com/route/105748963/pear-buttress,3.6,-1,Trad,5.8,5,,40.40556,-105.53398,76
Godzilla,"(C) Main Wall, left side > Lower Town Wall > Index > Skykomish Valley > Central-West Cascades & Seattle > Washington",https://www.mountainproject.com/route/105790717/godzilla,3.8,-1,Trad,5.9,1,105,47.81847,-121.57139,77
Sasquatch,Pentapitch Area > Little Cottonwood Canyon > Central Wasatch > Wasatch Range > Utah,https://www.mountainproject.com/route/105739898/sasquatch,3.8,-1,Trad,5.9+,1,,40.56859,-111.73767,78
Tachycardia,Heart Rock > Heart Rock Area > Maple Canyon Road > Maple Canyon > Central Utah > Utah,https://www.mountainproject.com/route/107669530/tachycardia,3.6,-1,Sport,5.7,3,300,39.5561,-111.6708,79
Skywalker,Shannon Falls Wall > Shannon Falls > Squamish > British Columbia > Canada > North America > International,https://www.mountainproject.com/route/107198282/skywalker,3.5,-1,Trad,5.8,5,300,49.66932,-123.15753,80
Culp-Bossier,Hallett Peak > RMNP - Rock > Alpine Rock > Colorado,https://www.mountainproject.com/route/105763911/culp-bossier,3.6,-1,"Trad, Alpine",5.8+,8,,40.3033,-105.686,81
Black September,3. Black Wall - Right > Black Wall > Donner Summit > I-80 Corridor > Lake Tahoe > California,https://www.mountainproject.com/route/105981506/black-september,3.8,-1,Trad,5.9,1,110,39.32564,-120.31425,82
Open Book,Finger of Fate > The Sawtooth Range > Central Idaho > Idaho,https://www.mountainproject.com/route/106531483/open-book,3.7,-1,"Trad, Alpine",5.8,5,800,44.0262,-114.96179,83
Two Bag Face,3) Workmen's Buttress > Fern Buttress > New River Gorge Proper > The New River Gorge Region > West Virginia,https://www.mountainproject.com/route/107129358/two-bag-face,3.9,-1,Trad,5.9 R,1,80,38.06369,-81.06911,84
Four Sheets to the Wind,Junkyard Wall > Junkyard Area > New River Gorge Proper > The New River Gorge Region > West Virginia,https://www.mountainproject.com/route/105943666/four-sheets-to-the-wind,3.8,-1,Trad,5.9+,1,75,38.08299,-81.08043,85
Frosted Mug,Upper Beer Wall > Beer Walls > B: Chapel Pond Pass > Adirondacks > New York,https://www.mountainproject.com/route/106542971/frosted-mug,3.8,-1,Trad,5.9,1,90,44.14338,-73.75578,86
The Line,East Wall > Main Formation > Lover's Leap > Highway 50 Corridor > Lake Tahoe > California,https://www.mountainproject.com/route/105798280/the-line,3.7,-1,Trad,5.9,3,320,38.80261,-120.13204,87
West Face,Leaning Tower > Q. Leaning Tower Area > Valley South Side > Yosemite Valley > Yosemite National Park > California,https://www.mountainproject.com/route/106187777/west-face,3.7,-1,"Trad, Aid",5.7 C2,11,1000,37.71281,-119.64769,88
Sparerib,Sparerib Area > East Side > Gallatin Canyon > Southwest Region > Montana,https://www.mountainproject.com/route/105961561/sparerib,3.8,-1,Trad,5.8,2,225,45.4196,-111.2293,89
Laughing Crack,Wall Area > The Smoke Bluffs > Squamish > British Columbia > Canada > North America > International,https://www.mountainproject.com/route/105959460/laughing-crack,3.6,-1,Trad,5.7,1,75,49.7081,-123.141,90
Bishops Terrace,G. Church Bowl > Valley North Side > Yosemite Valley > Yosemite National Park > California,https://www.mountainproject.com/route/105872317/bishops-terrace,3.7,-1,Trad,5.8,1,150,37.74908,-119.58015,91
Chrysler Crack,Chrysler Crack Buttress > Sandy Corridor > Parking Lot Area > (05) Sandstone Quarry > Red Rocks > Southern Nevada > Nevada,https://www.mountainproject.com/route/105887571/chrysler-crack,3.8,-1,Trad,5.9,1,90,36.1628,-115.44808,92
Kor-Ingalls Route,Castleton Tower > Castle Valley > Southeast Utah > Utah,https://www.mountainproject.com/route/105717289/kor-ingalls-route,3.4,-1,Trad,5.9+,4,,38.651,-109.3678,93
Armatron,Brownstone Wall > (11) Juniper Canyon > Red Rocks > Southern Nevada > Nevada,https://www.mountainproject.com/route/105809181/armatron,3.6,-1,Trad,5.9-,6,680,36.11483,-115.4957,94
Kor's Flake,Sundance Buttress > Lumpy Ridge > Estes Park Valley > Colorado,https://www.mountainproject.com/route/105749071/kors-flake,3.6,-1,Trad,5.7+,6,800,40.41269,-105.5516,95
Original Route,The Mace > Cathedral Rock Area > Sedona > Sedona Area > Northern Arizona > Arizona,https://www.mountainproject.com/route/105788086/original-route,3.6,-1,Trad,5.9+,5,400,34.81836,-111.7913,96
West Crack,West Face > DAFF Dome > DAFF Area > Tuolumne Meadows > Yosemite National Park > California,https://www.mountainproject.com/route/105859422/west-crack,3.6,-1,Trad,5.9,5,430,37.8795,-119.41345,97
Center Thumb,South Summit Wall > Lone Peak Cirque > Central Wasatch > Wasatch Range > Utah,https://www.mountainproject.com/route/105741161/center-thumb,3.8,-1,"Trad, Alpine",5.9,5,550,40.52551,-111.7558,98
West Ridge,"Prusik Peak > Stuart-Enchantments > Central-East Cascades, Wenatchee, & Leavenworth > Washington",https://www.mountainproject.com/route/105808527/west-ridge,3.5,-1,"Trad, Alpine",5.7,4,400,47.48786,-120.78373,99
The Beast Flake,The Prow Area > *Cathedral Ledge > New Hampshire,https://www.mountainproject.com/route/105919971/the-beast-flake,3.7,-1,Trad,5.9,1,120,44.06298,-71.1656,100
Rebuffat's Arete,Redgarden - Lumpe to the top > Redgarden Wall > Eldorado Canyon State Park > Boulder > Colorado,https://www.mountainproject.com/route/108095626/rebuffats-arete,3.7,-1,Trad,5.7,1,190,39.93228,-105.28671,101
Strawberry Fields,Reflector Oven > Old Rag > Shenandoah National Park > Shenandoah & NW VA Region > Virginia,https://www.mountainproject.com/route/105898326/strawberry-fields,3.8,-1,Trad,5.9+,1,65,38.55,-78.3089,102
Quadrophenia AKA Bara Bara,Hurricane Crag > C: Keene Region > Adirondacks > New York,https://www.mountainproject.com/route/106197345/quadrophenia-aka-bara-bara,3.8,-1,Trad,5.7+ PG13,4,350,44.21541,-73.69944,103
The Nose,Nose Area > Looking Glass Rock > 1. Southern Mountains Region > North Carolina,https://www.mountainproject.com/route/105874396/the-nose,3.5,-1,Trad,5.8,4,400,35.30474,-82.79538,104
CCK Direct,h. The Arrow Wall - CCK > The Trapps > The Gunks > New York,https://www.mountainproject.com/route/105801940/cck-direct,3.8,-1,Trad,5.9 PG13,2,240,41.74396,-74.17964,105
Direct Petzoldt Ridge,Grand Teton > Grand Teton National Park > Wyoming,https://www.mountainproject.com/route/105803717/direct-petzoldt-ridge,3.6,-1,"Trad, Alpine",5.7,6,,43.74092,-110.80253,106
South Face,I. Washington Column > Valley North Side > Yosemite Valley > Yosemite National Park > California,https://www.mountainproject.com/route/105847471/south-face,3.5,-1,"Trad, Aid",5.8 C1,11,1200,37.74778,-119.559,107
Air Show,Circus Wall > Sentinel Buttress > Moore's Wall (Routes) > Hanging Rock State Park > 3. Piedmont Region > North Carolina,https://www.mountainproject.com/route/106337238/air-show,3.8,-1,Trad,5.9-,2,180,36.3973,-80.2861,108
Directissima,i. High E > The Trapps > The Gunks > New York,https://www.mountainproject.com/route/105799563/directissima,3.7,-1,Trad,5.9,2,120,41.74421,-74.179,109
Traveler Buttress,Main Wall > Main Formation > Lover's Leap > Highway 50 Corridor > Lake Tahoe > California,https://www.mountainproject.com/route/105812520/traveler-buttress,3.6,-1,Trad,5.9,4,500,38.80006,-120.13522,110
Upper Diagonal,05: Pedestal Buttress > East Bluff 04 - East Rampart > Devil's Lake > Baraboo Range > Wisconsin,https://www.mountainproject.com/route/105730598/upper-diagonal,3.8,-1,"Trad, TR",5.9,1,,43.41359,-89.71252,111
Modern Times,h. The Arrow Wall - CCK > The Trapps > The Gunks > New York,https://www.mountainproject.com/route/105799085/modern-times,3.7,-1,Trad,5.8+,2,250,41.74396,-74.17964,112
Royal Flush,Mount Royal (near Frisco) > 10 Mile Canyon > Colorado,https://www.mountainproject.com/route/106811713/royal-flush,3,-1,Sport,5.9,8,1500,39.5723,-106.111,113
Sedona's Scenic Cruise,Gibraltar Rock > Gibraltar Rock Area > Sedona > Sedona Area > Northern Arizona > Arizona,https://www.mountainproject.com/route/105789780/sedonas-scenic-cruise,3.6,-1,Trad,5.9,5,700,34.8196,-111.75331,114
Waste Knot,Ephel Duath > Towers of Teeth > Middle Earth > Sylvan Lake > Custer State Park > South Dakota,https://www.mountainproject.com/route/108244256/waste-knot,3.7,-1,Sport,5.8,1,130,43.8482,-103.56972,115
Reppys Crack,4. Moby Grape Area > *Cannon Cliff > New Hampshire,https://www.mountainproject.com/route/110887591/reppys-crack,3.7,-1,"Trad, Alpine",5.8,1,100,44.15838,-71.6846,116
The Martyr,Saint Peter's Overlook > Old Stage Road > Colorado Springs > Colorado,https://www.mountainproject.com/route/105756922/the-martyr,3.8,-1,Trad,5.9+,2,300,38.74613,-104.91559,117
East Face,Mt. Whitney > 14 - Whitney & Surrounding Peaks > High Sierra > California,https://www.mountainproject.com/route/105792077/east-face,3.5,-1,"Trad, Alpine",5.7,10,1000,36.57844,-118.29229,118
Zanzibar Dihedral,Weller Slab > Weller Area > Independence Pass > Colorado,https://www.mountainproject.com/route/105978828/zanzibar-dihedral,3.8,-1,"Trad, Alpine",5.8,1,125,39.12419,-106.72205,119
Bloody Mary,Poke-O-Moonshine Main Face > Poke-O-Moonshine > A: Lake Champlain Region > Adirondacks > New York,https://www.mountainproject.com/route/106078832/bloody-mary,3.7,-1,Trad,5.9+,6,500,44.40783,-73.50371,120
Holy War,Wall of Useless Conflict > Foster Falls > Tennessee,https://www.mountainproject.com/route/108668668/holy-war,3.7,-1,Sport,5.9+,1,95,35.17829,-85.68934,121
Senior Citizens in Space,Private Idaho > Lookout Point Area > Index > Skykomish Valley > Central-West Cascades & Seattle > Washington,https://www.mountainproject.com/route/106057429/senior-citizens-in-space,3.7,-1,"Trad, TR",5.7+,1,100,47.825,-121.55807,122
Cerberus,Tricouni Nail/Cerberus > Tenpins/Switchbacks > Custer State Park > South Dakota,https://www.mountainproject.com/route/105714761/cerberus,3.8,-1,Trad,5.8,1,70,43.84004,-103.53593,123
Autumn,Long Wall > Northern Gorge > Red River Gorge > Kentucky,https://www.mountainproject.com/route/105868022/autumn,3.7,-1,Trad,5.9,1,80,37.8446,-83.6686,124
Assembly Line,East and Northeast Buttress Approach > Devils Tower > Wyoming,https://www.mountainproject.com/route/105715028/assembly-line,3.7,-1,Trad,5.9,2,140,44.5911,-104.71442,125
Northeast Buttress,5. Higher Cathedral Rock > P. Cathedral Area > Valley South Side > Yosemite Valley > Yosemite National Park > California,https://www.mountainproject.com/route/105862896/northeast-buttress,3.7,-1,Trad,5.9+ PG13,11,900,37.71439,-119.63469,126
Finger of Fate,The Titan > Fisher Towers > Southeast Utah > Utah,https://www.mountainproject.com/route/105717568/finger-of-fate,3.7,-1,"Trad, Aid",5.8 C2+,8,,38.71745,-109.29955,127
Ellingwood Ledges,The Crestones > Sangre de Cristo Range > Alpine Rock > Colorado,https://www.mountainproject.com/route/105748714/ellingwood-ledges,3.5,-1,"Trad, Alpine",5.7,1,,37.96669,-105.585,128
Edward's Crack,Walt's Wall > Turtle Rock > Vedauwoo > Laramie Area > Wyoming,https://www.mountainproject.com/route/105751021/edwards-crack,3.6,-1,Trad,5.7,2,,41.16186,-105.3763,129
Diedre,South Apron > The Apron > Stawamus Chief > Squamish > British Columbia > Canada > North America > International,https://www.mountainproject.com/route/105857666/diedre,3.4,-1,Trad,5.8,6,800,49.68635,-123.1474,130
The Prow (Kit Carson),The Crestones > Sangre de Cristo Range > Alpine Rock > Colorado,https://www.mountainproject.com/route/105750589/the-prow-kit-carson,3.7,-1,"Trad, Alpine",5.8 R,1,,37.96669,-105.585,131
Fingertrip,West Face - Right Side > (g) West Face > Tahquitz Rock > Tahquitz & Suicide Rocks > California,https://www.mountainproject.com/route/105798877/fingertrip,3.5,-1,Trad,5.7,4,400,33.75985,-116.68542,132
The Golden Dream (AKA Dihedraltryptamine),s. The Golden Wall > Peterskill > The Gunks > New York,https://www.mountainproject.com/route/105899731/the-golden-dream-aka-dihedraltryptamine,3.7,-1,"Trad, TR",5.9,1,70,41.73904,-74.21411,133
Shoshone South Face,Shoshone Spire > Blodgett Canyon > Northwest Region > Montana,https://www.mountainproject.com/route/106679643/shoshone-south-face,3.7,-1,Trad,5.8+,5,600,46.27751,-114.28114,134
Old Town,The Precipice aka The South Wall > -Acadia National Park > Maine,https://www.mountainproject.com/route/105998178/old-town,3.7,-1,Trad,5.7+,1,70,44.34691,-68.19013,135
Wheat Thin,Elephant Rock - East > Elephant Rock > City of Rocks > South Idaho > Idaho,https://www.mountainproject.com/route/105740996/wheat-thin,3.6,-1,Trad,5.7,1,120,42.06739,-113.70894,136
The Mutt and Jeff,The Wedge > Humbug Spires > Southwest Region > Montana,https://www.mountainproject.com/route/107321383/the-mutt-and-jeff,3.7,-1,Trad,5.8,5,600,45.7773,-112.63682,137
Skyline,Morning Glory Spire > City of Rocks > South Idaho > Idaho,https://www.mountainproject.com/route/105740963/skyline,3.7,-1,Trad,5.8,1,100,42.08282,-113.72147,138
Double Cross,The Old Woman - West Face > The Old Woman > Hidden Valley Campground > Hidden Valley Area > Joshua Tree National Park > California,https://www.mountainproject.com/route/105721615/double-cross,3.5,-1,Trad,5.7+,1,95,34.01661,-116.16386,139
Blanca Nieves,1. The Main Wall at Caliche > Caliche (Ciales) > Puerto Rico > North America > International,https://www.mountainproject.com/route/108541199/blanca-nieves,3.7,-1,Sport,5.8,1,90,18.35192,-66.47887,140
Pentapitch,Pentapitch Area > Little Cottonwood Canyon > Central Wasatch > Wasatch Range > Utah,https://www.mountainproject.com/route/105739895/pentapitch,3.6,-1,Trad,5.8,5,,40.56859,-111.73767,141
Mountaineer's Route,The Elephant's Perch > The Sawtooth Range > Central Idaho > Idaho,https://www.mountainproject.com/route/105996469/mountaineers-route,3.5,-1,"Trad, Alpine",5.9,7,,44.06857,-114.97445,142
The El,Pitchoff Chimney Cliff > C: Keene Region > Adirondacks > New York,https://www.mountainproject.com/route/106446972/the-el,3.7,-1,Trad,5.8,3,180,44.23598,-73.86449,143
Green Monster,Green Monster Slab > Rock Canyon > Southern Wasatch > Wasatch Range > Utah,https://www.mountainproject.com/route/105741686/green-monster,3.7,-1,"Trad, TR",5.9,1,100,40.2651,-111.6222,144
West Pole,South Peak West Face (Main Area) > South Peak - West Face > Seneca Rocks > West Virginia,https://www.mountainproject.com/route/105868530/west-pole,3.7,-1,Trad,5.7+,2,180,38.83453,-79.36677,145
The Diagonal,Wallface > E: High Peaks Region > Adirondacks > New York,https://www.mountainproject.com/route/107201641/the-diagonal,3.4,-1,Trad,5.8,7,860,44.137,-74.035,146
Gordon's Hangover,Green Adjective Gully > Little Cottonwood Canyon > Central Wasatch > Wasatch Range > Utah,https://www.mountainproject.com/route/105740096/gordons-hangover,3.7,-1,Trad,5.9+,1,150,40.5741,-111.7543,147
Otto's Route,Independence Monument > Colorado National Monument > Grand Junction Area > Colorado,https://www.mountainproject.com/route/105758122/ottos-route,3.4,-1,Trad,5.8+,4,400,39.09581,-108.72342,148
27 Years of Climbing,The Gallery > Pendergrass-Murray Recreational Preserve (PMRP) > Red River Gorge > Kentucky,https://www.mountainproject.com/route/106125099/27-years-of-climbing,3.6,-1,Sport,5.8,1,65,37.65292,-83.71772,149
They Died Laughing,The North End > *Cathedral Ledge > New Hampshire,https://www.mountainproject.com/route/105909672/they-died-laughing,3.7,-1,"Trad, TR",5.9,1,100,44.06728,-71.16671,150
Ants' Line,i. High E > The Trapps > The Gunks > New York,https://www.mountainproject.com/route/105803260/ants-line,3.6,-1,Trad,5.9,1,80,41.74421,-74.179,151
Rye Crisp,Elephant Rock - East > Elephant Rock > City of Rocks > South Idaho > Idaho,https://www.mountainproject.com/route/105740981/rye-crisp,3.7,-1,Trad,5.8,1,120,42.06739,-113.70894,152
Toxic Shock,(b) Toxic - Tang Area > West Side > Inner Walls > Index > Skykomish Valley > Central-West Cascades & Seattle > Washington,https://www.mountainproject.com/route/105791086/toxic-shock,3.7,-1,Trad,5.9,1,90,47.81897,-121.57568,153
Edge of Time,The Fin > Jurassic Park - Lily Lake > CO Hwy 7 & Tributaries > Estes Park Valley > Colorado,https://www.mountainproject.com/route/105756826/edge-of-time,3.4,-1,"Sport, TR",5.9+,1,85,40.3127,-105.5411,154
Leonids,Left Wall > The Wedge > El Cajon Mountain > South San Diego County > San Diego County > California,https://www.mountainproject.com/route/105793305/leonids,3.6,-1,Sport,5.9,3,350,32.90461,-116.81845,155
Lost Arrow,Lost Arrow Spire > City of Rocks > South Idaho > Idaho,https://www.mountainproject.com/route/105740972/lost-arrow,3.7,-1,Trad,5.7 R,2,170,42.08568,-113.71267,156
Southwest Rib,South Early Winters Spire > Liberty Bell Group > Washington Pass > North Cascades > Hwy 20 and North Cascades National Park > Northwest Region > Washington,https://www.mountainproject.com/route/106416669/southwest-rib,3.5,-1,"Trad, Alpine",5.8,7,900,48.51216,-120.65513,157
Hobbit Book,West Face > Mariuolumne Dome > Tuolumne Meadows > Yosemite National Park > California,https://www.mountainproject.com/route/105861268/hobbit-book,3.6,-1,Trad,5.7,4,,37.8623,-119.42265,158
Psycho-Path,Psycho Tower > Big Gypsum - Dolores > Naturita and Paradox Valley > Colorado,https://www.mountainproject.com/route/106540009/psycho-path,3.7,-1,Trad,5.9,3,180,38.1349,-108.8731,159
Gambit,Shirt Tail Peak > Eldorado Canyon State Park > Boulder > Colorado,https://www.mountainproject.com/route/105751960/gambit,3.6,-1,Trad,5.8,5,,39.93429,-105.28837,160
In Pursuit of Excellence,T-Wall East > The Tennessee Wall > Tennessee,https://www.mountainproject.com/route/105902833/in-pursuit-of-excellence,3.7,-1,Trad,5.9+,1,90,35.07379,-85.40108,161
Blown Away,West Face > DAFF Dome > DAFF Area > Tuolumne Meadows > Yosemite National Park > California,https://www.mountainproject.com/route/105862936/blown-away,3.7,-1,Trad,5.9 PG13,5,500,37.8795,-119.41345,162
Gobbler's Grunt,Turkey Rock > Turkey Rocks > South Platte > Colorado,https://www.mountainproject.com/route/105752743/gobblers-grunt,3.7,-1,Trad,5.9,3,,39.11917,-105.23983,163
One Hand Clapping,1. Black Wall - Left > Black Wall > Donner Summit > I-80 Corridor > Lake Tahoe > California,https://www.mountainproject.com/route/105736426/one-hand-clapping,3.6,-1,Trad,5.9,4,400,39.32485,-120.31463,164
The Prow,I. Washington Column > Valley North Side > Yosemite Valley > Yosemite National Park > California,https://www.mountainproject.com/route/105911858/the-prow,3.6,-1,"Trad, Aid",5.8 C2,12,1200,37.74778,-119.559,165
Garfield Goes To Washington,White House Wall > Emancipation > Mount Rushmore National Memorial > The Needles Of Rushmore > South Dakota,https://www.mountainproject.com/route/105714800/garfield-goes-to-washington,3.7,-1,Trad,5.8,3,400,43.8807,-103.4619,166
Mainliner,Sundance Buttress > Lumpy Ridge > Estes Park Valley > Colorado,https://www.mountainproject.com/route/105749065/mainliner,3.6,-1,Trad,5.9,5,700,40.41269,-105.5516,167
Ecstasy,South End > Seneca Rocks > West Virginia,https://www.mountainproject.com/route/105910030/ecstasy,3.6,-1,Trad,5.7,3,250,38.83377,-79.36693,168
Straight Shooter,Straight Shooter Wall > (10) Pine Creek Canyon > Red Rocks > Southern Nevada > Nevada,https://www.mountainproject.com/route/105732428/straight-shooter,3.6,-1,Trad,5.9+,1,60,36.1268,-115.48806,169
Weird Water,Middle Marker Area > Marker > Magna Carta > Mount Rushmore National Memorial > The Needles Of Rushmore > South Dakota,https://www.mountainproject.com/route/105714749/weird-water,3.7,-1,Trad,5.7,1,140,43.88242,-103.46227,170
Triple S,South Peak West Face (Main Area) > South Peak - West Face > Seneca Rocks > West Virginia,https://www.mountainproject.com/route/105908844/triple-s,3.6,-1,Trad,5.8+,2,90,38.83453,-79.36677,171
Forest Lawn,Bastion Towers > Rockfellow Group > East Stronghold > Cochise Stronghold > Southern Arizona > Arizona,https://www.mountainproject.com/route/105842218/forest-lawn,3.7,-1,Trad,5.9+,3,300,31.92656,-109.97723,172
Fear of Flying,Upper Spire > Phantom Spires > Highway 50 Corridor > Lake Tahoe > California,https://www.mountainproject.com/route/105858248/fear-of-flying,3.7,-1,Trad,5.9+,2,,38.78867,-120.24518,173
The Tooth Fairy,Summer-Fall (rock) > The Tooth > Snoqualmie Pass Area > Central-West Cascades & Seattle > Washington,https://www.mountainproject.com/route/119074107/the-tooth-fairy,3.1,-1,Sport,5.9,6,500,47.4459,-121.45444,174
Phobos,Phobos/Deimos Cliff > Tuolumne Meadows > Yosemite National Park > California,https://www.mountainproject.com/route/105862966/phobos,3.7,-1,Trad,5.9+,3,275,37.84976,-119.44817,175
Princely Ambitions,"(C) Main Wall, left side > Lower Town Wall > Index > Skykomish Valley > Central-West Cascades & Seattle > Washington",https://www.mountainproject.com/route/105790710/princely-ambitions,3.7,-1,Trad,5.9,2,,47.81847,-121.57139,176
Gossamer,Picture Window > Monster North > Magna Carta > Mount Rushmore National Memorial > The Needles Of Rushmore > South Dakota,https://www.mountainproject.com/route/105714776/gossamer,3.7,-1,"Trad, Sport",5.7,1,40,43.88448,-103.46349,177
Yellow Ridge,a. Beginning of cliff to Gelsa > The Near Trapps > The Gunks > New York,https://www.mountainproject.com/route/105799421/yellow-ridge,3.6,-1,Trad,5.7,3,200,41.73517,-74.19463,178
Soler,South and East Faces > Devils Tower > Wyoming,https://www.mountainproject.com/route/105714830/soler,3.6,-1,Trad,5.9,2,280,44.58986,-104.71457,179
West Face Variation,(s) Monkey Face > Smith Rock > Central Oregon > Oregon,https://www.mountainproject.com/route/105792553/west-face-variation,3.6,-1,"Trad, Aid",5.8 C0,5,300,44.37053,-121.14363,180
Olive Oil,Rose Tower > (11) Juniper Canyon > Red Rocks > Southern Nevada > Nevada,https://www.mountainproject.com/route/105732494/olive-oil,3.4,-1,Trad,5.7,5,600,36.1178,-115.48805,181
Pleasant Overhangs,South Peak West Face (Main Area) > South Peak - West Face > Seneca Rocks > West Virginia,https://www.mountainproject.com/route/106171582/pleasant-overhangs,3.6,-1,Trad,5.7,3,290,38.83453,-79.36677,182
Satan's Corner,Dihedrals Area > Gate Buttress > Little Cottonwood Canyon > Central Wasatch > Wasatch Range > Utah,https://www.mountainproject.com/route/105740510/satans-corner,3.6,-1,Trad,5.8,2,100,40.57311,-111.75298,183
Kamps Crack (Classic Crack),Inner Outlet > Outlets > Sylvan Lake > Custer State Park > South Dakota,https://www.mountainproject.com/route/105714842/kamps-crack-classic-crack,3.7,-1,Trad,5.8-,1,120,43.84779,-103.56808,184
Regular Route (Higher Cathedral Spire),3. Higher Cathedral Spire > P. Cathedral Area > Valley South Side > Yosemite Valley > Yosemite National Park > California,https://www.mountainproject.com/route/105956387/regular-route-higher-cathedral-spire,3.5,-1,Trad,5.9,4,400,37.71404,-119.63226,185
Gamesmanship,Poke-O-Moonshine Main Face > Poke-O-Moonshine > A: Lake Champlain Region > Adirondacks > New York,https://www.mountainproject.com/route/106074170/gamesmanship,3.6,-1,Trad,5.8+,5,500,44.40783,-73.50371,186
Evergreen,Pine Tree Rock > Chopping Block > Mount Rushmore National Memorial > The Needles Of Rushmore > South Dakota,https://www.mountainproject.com/route/105820050/evergreen,3.7,-1,Sport,5.9,1,140,43.88486,-103.46835,187
Cheaper Than a Movie,Chica Bonita Wall > Pendergrass-Murray Recreational Preserve (PMRP) > Red River Gorge > Kentucky,https://www.mountainproject.com/route/106064911/cheaper-than-a-movie,3.7,-1,Trad,5.8,1,100,37.65078,-83.72161,188
The Perfect Lie Back,6 - Liebacks Area > The Fortress > Woodfords Canyon > Carson Pass Highway (88) > Lake Tahoe > California,https://www.mountainproject.com/route/106395441/the-perfect-lie-back,3.7,-1,Trad,5.8,1,60,38.76935,-119.85229,189
Soler,Upper Broadway > South Peak - East Face > Seneca Rocks > West Virginia,https://www.mountainproject.com/route/106061731/soler,3.6,-1,Trad,5.7,2,200,38.8344,-79.36659,190
Great Red Book,The Great Red Book Area > (04) Second Pullout (Calico II) > Red Rocks > Southern Nevada > Nevada,https://www.mountainproject.com/route/105732647/great-red-book,3.4,-1,Trad,5.8,2,250,36.15544,-115.43461,191
Guppy,Creek Side > Clear Creek Canyon > Golden > Colorado,https://www.mountainproject.com/route/105763794/guppy,3.6,-1,Sport,5.8,1,115,39.74102,-105.41042,192
Loose Ends,J-Crack Slab Area > The Book > Lumpy Ridge > Estes Park Valley > Colorado,https://www.mountainproject.com/route/105748684/loose-ends,3.6,-1,Trad,5.9,5,,40.40556,-105.53398,193
Minor Dihedral,Haystack Mountain > Deep Lake Area > Wind River Range > Wyoming,https://www.mountainproject.com/route/105827766/minor-dihedral,3.6,-1,"Trad, Alpine",5.9,10,1000,42.73004,-109.17068,194
The Green Adjective,Green Adjective Gully > Little Cottonwood Canyon > Central Wasatch > Wasatch Range > Utah,https://www.mountainproject.com/route/105740051/the-green-adjective,3.6,-1,Trad,5.9+,3,250,40.5741,-111.7543,195
Classic Dihedral,Bucksnort Slab > Pine Area > South Platte > Colorado,https://www.mountainproject.com/route/105751567/classic-dihedral,3.6,-1,Trad,5.7,2,300,39.42133,-105.31936,196
Private Pizza,Private Pizza Wall > Lower Buckhorn > Buckhorn Wash > San Rafael Swell - North > San Rafael Swell > South Central Utah > Utah,https://www.mountainproject.com/route/106065612/private-pizza,3.6,-1,Trad,5.9,1,70,39.11181,-110.6764,197
Northeast Ridge of the Pinnacle,05. Huntington Ravine > WM: Pinkham / Presidentials > New Hampshire,https://www.mountainproject.com/route/106304119/northeast-ridge-of-the-pinnacle,3.4,-1,Trad,5.7,7,900,44.27434,-71.2875,198
The Reacharound,Lakeside in the Woods > Murrin Park > Squamish > British Columbia > Canada > North America > International,https://www.mountainproject.com/route/107850975/the-reacharound,3.7,-1,Trad,5.9,1,80,49.64426,-123.20967,199
MF,e. The Mac Wall (Something Interesting) > The Trapps > The Gunks > New York,https://www.mountainproject.com/route/105799143/mf,3.6,-1,Trad,5.9,2,180,41.73936,-74.18421,200
Arachnid,Tower Rock > Northern Gorge > Red River Gorge > Kentucky,https://www.mountainproject.com/route/105882818/arachnid,3.7,-1,Trad,5.8+,1,80,37.82823,-83.59714,201
Double Crack,j. The Yellow Wall and The Seasons > The Trapps > The Gunks > New York,https://www.mountainproject.com/route/105806583/double-crack,3.6,-1,Trad,5.8,1,150,41.74756,-74.17576,202
The Sting,Poke-O-Moonshine Main Face > Poke-O-Moonshine > A: Lake Champlain Region > Adirondacks > New York,https://www.mountainproject.com/route/106051361/the-sting,3.6,-1,Trad,5.8+,1,80,44.40783,-73.50371,203
White Lightning,Table Rock > Linville Gorge > 2. Northern Mountains Region > North Carolina,https://www.mountainproject.com/route/105925472/white-lightning,3.6,-1,Trad,5.8+,2,200,35.88831,-81.88519,204
Void of Form,Pontatoc Ridge > Pontatoc Canyon > Mount Lemmon (Santa Catalina Mountains) > Southern Arizona > Arizona,https://www.mountainproject.com/route/114262472/void-of-form,3.2,-1,Sport,5.9,10,1000,32.34528,-110.88783,205
North Arete,Bear Creek Spire > 06 - Little Lakes Valley & Mono Recesses > High Sierra > California,https://www.mountainproject.com/route/105806102/north-arete,3.5,-1,"Trad, Alpine",5.8,6,1000,37.3681,-118.767,206
Mars Attacks,The Fin > Dry Creek Road Area > West Sedona > Sedona Area > Northern Arizona > Arizona,https://www.mountainproject.com/route/105793038/mars-attacks,3.5,-1,Trad,5.9 PG13,4,350,34.90455,-111.80682,207
Aurora Borealis,Black Bluff - N. Face (Right Side) > Black Bluff - North Face > Black Bluff > Mill Creek Road/Skyline Drive Area > Big Bear South > Big Bear Lake Area > San Bernardino Mountains > California,https://www.mountainproject.com/route/107247031/aurora-borealis,3.7,-1,"Trad, Alpine",5.9,1,80,34.21992,-116.99268,208
WMA Crack,Confederate Cracks > West Side > Horseshoe Canyon Ranch > North-Central Arkansas > Arkansas,https://www.mountainproject.com/route/105986617/wma-crack,3.7,-1,Trad,5.9+,1,60,36.00132,-93.29346,209
Flakes of Wrath,Wall Street > Potash Road > Southeast Utah > Utah,https://www.mountainproject.com/route/105717511/flakes-of-wrath,3.5,-1,"Trad, TR",5.9+,1,70,38.54668,-109.59959,210
Moonshine Dihedral,(k) The Dihedrals > Smith Rock > Central Oregon > Oregon,https://www.mountainproject.com/route/105790283/moonshine-dihedral,3.6,-1,Trad,5.9,2,90,44.3665,-121.14564,211
Frosted Flake,Cereal Buttress > Rumbling Bald > 1. Southern Mountains Region > North Carolina,https://www.mountainproject.com/route/105899306/frosted-flake,3.6,-1,Trad,5.9+,1,80,35.44953,-82.21258,212
South Face Route,J. North Dome > Valley North Side > Yosemite Valley > Yosemite National Park > California,https://www.mountainproject.com/route/105984188/south-face-route,3.6,-1,Trad,5.8,7,900,37.75783,-119.56211,213
Southeast Face,Clyde Minaret > 04 - Ritter & Minarets > High Sierra > California,https://www.mountainproject.com/route/105809048/southeast-face,3.7,-1,"Trad, Alpine",5.8+,13,1500,37.6604,-119.174,214
Hair City,The Bastille - W Face > The Bastille > Eldorado Canyon State Park > Boulder > Colorado,https://www.mountainproject.com/route/105748627/hair-city,3.6,-1,Trad,5.9+ R,3,310,39.9304,-105.283,215
North Ridge of Matthes Crest,Matthes Crest > Cathedral Range > Tuolumne Meadows > Yosemite National Park > California,https://www.mountainproject.com/route/108343012/north-ridge-of-matthes-crest,3.9,-1,"Trad, Alpine",5.8,1,1200,37.8186,-119.3992,216
Magnolia Thunderpussy,Middle Section > Granite Mountain > **Prescott Area > Central Arizona > Arizona,https://www.mountainproject.com/route/105886456/magnolia-thunderpussy,3.6,-1,Trad,5.9,3,,34.62908,-112.56665,217
The Green Spur,Redgarden - Lumpe to the top > Redgarden Wall > Eldorado Canyon State Park > Boulder > Colorado,https://www.mountainproject.com/route/105748645/the-green-spur,3.5,-1,Trad,5.9+,2,,39.93228,-105.28671,218
Boardwalk,Main Tier > Ship Rock > 2. Northern Mountains Region > North Carolina,https://www.mountainproject.com/route/105887636/boardwalk,3.7,-1,Trad,5.8,2,130,36.099,-81.7815,219
East of Eden,The Eden Wall > Eden Area > The Narrows > Poudre Canyon > Fort Collins > Colorado,https://www.mountainproject.com/route/105755080/east-of-eden,3.7,-1,Trad,5.9,1,125,40.67736,-105.42989,220
Comfortably Numb,The Pinnacle > Cherokee Rock Village (Sand Rock) > Alabama,https://www.mountainproject.com/route/105905196/comfortably-numb,3.6,-1,"Trad, TR",5.9,1,120,34.17945,-85.81775,221
Airlie Gardens,Main Tier > Ship Rock > 2. Northern Mountains Region > North Carolina,https://www.mountainproject.com/route/106803462/airlie-gardens,3.6,-1,Trad,5.9,2,130,36.099,-81.7815,222
J-Crack,J-Crack Slab Area > The Book > Lumpy Ridge > Estes Park Valley > Colorado,https://www.mountainproject.com/route/105748957/j-crack,3.5,-1,Trad,5.9+,4,,40.40556,-105.53398,223
Sail Away,Hidden Tower > Real Hidden Valley > Hidden Valley Area > Joshua Tree National Park > California,https://www.mountainproject.com/route/105722179/sail-away,3.5,-1,Trad,5.8-,1,60,34.01456,-116.16825,224
Wherever I May Roam,(6) Northwest Face > (m) Smith Rock Group > Smith Rock > Central Oregon > Oregon,https://www.mountainproject.com/route/105821077/wherever-i-may-roam,3.3,-1,Sport,5.9,5,400,44.36445,-121.1482,225
Ashtar Command,Ataxia Tower > Mount Carmel Tunnel > Zion National Park > Southwest Utah > Utah,https://www.mountainproject.com/route/105792804/ashtar-command,3.5,-1,Trad,5.9,2,250,37.21191,-112.96193,226
Fantasy,M) Fantasy Area > Endless Wall > New River Gorge Proper > The New River Gorge Region > West Virginia,https://www.mountainproject.com/route/106155521/fantasy,3.6,-1,Trad,5.8,2,120,38.05596,-81.05393,227
Dirty Pinkos,(u) Red Wall > Smith Rock > Central Oregon > Oregon,https://www.mountainproject.com/route/108347741/dirty-pinkos,3.5,-1,Sport,5.9+,4,,44.3696,-121.13916,228
Alice in Bucketland,Redgarden - Tower One > Redgarden Wall > Eldorado Canyon State Park > Boulder > Colorado,https://www.mountainproject.com/route/105762483/alice-in-bucketland,3.6,-1,Trad,5.8+ R,2,290,39.93194,-105.28603,229
Pegasus,Main Walls > Cathole Mountain > Central Valley > Connecticut,https://www.mountainproject.com/route/105800352/pegasus,3.6,-1,"Trad, TR",5.8,1,70,41.55964,-72.81109,230
Voyage of the Cowdog,(a) Picnic Lunch Wall > Smith Rock > Central Oregon > Oregon,https://www.mountainproject.com/route/106673268/voyage-of-the-cowdog,3.3,-1,Sport,5.8+,3,260,44.36818,-121.1401,231
Golden Locks,T-Wall East > The Tennessee Wall > Tennessee,https://www.mountainproject.com/route/105888826/golden-locks,3.6,-1,Trad,5.9,1,100,35.07379,-85.40108,232
Baba Cool,Chopping Block > Chopping Block > Mount Rushmore National Memorial > The Needles Of Rushmore > South Dakota,https://www.mountainproject.com/route/105714854/baba-cool,3.7,-1,Sport,5.9+,1,60,43.88538,-103.46937,233
Southwest Corner,Petit Grepon > RMNP - Rock > Alpine Rock > Colorado,https://www.mountainproject.com/route/105754654/southwest-corner,3.6,-1,"Trad, Alpine",5.9,9,,40.28029,-105.6725,234
Traitor Horn,West Face - Right Side > (g) West Face > Tahquitz Rock > Tahquitz & Suicide Rocks > California,https://www.mountainproject.com/route/105799577/traitor-horn,3.4,-1,Trad,5.8,4,400,33.75985,-116.68542,235
Stan's Crack,Sunset North > Sunset Park > Tennessee,https://www.mountainproject.com/route/105957464/stans-crack,3.6,-1,Trad,5.8+,2,90,34.9992,-85.3554,236
Fruit Loops,Cereal Buttress > Rumbling Bald > 1. Southern Mountains Region > North Carolina,https://www.mountainproject.com/route/105898439/fruit-loops,3.5,-1,Trad,5.7+,2,160,35.44953,-82.21258,237
Bunny Slope,Critic's Choice > Indian Creek > Southeast Utah > Utah,https://www.mountainproject.com/route/105930583/bunny-slope,3.5,-1,Trad,5.9,1,140,38.03075,-109.60173,238
Waves,Shipyard Rock > South Seas > Mount Rushmore National Memorial > The Needles Of Rushmore > South Dakota,https://www.mountainproject.com/route/105714728/waves,3.6,-1,Sport,5.8,2,180,43.8864,-103.46677,239
Management Wore Masks,Cotton Club > Cotton Hill > New River Gorge Proper > The New River Gorge Region > West Virginia,https://www.mountainproject.com/route/117081023/management-wore-masks,3.6,-1,Sport,5.8,1,80,38.1138,-81.13935,240
Ferrovieri,3. Second Buttress > Upper Meadow > Meadow River Gorge > The New River Gorge Region > West Virginia,https://www.mountainproject.com/route/113785114/ferrovieri,3.6,-1,Sport,5.7,1,100,38.14295,-80.91755,241
Middle Parallel Space,Nautilus > Vedauwoo > Laramie Area > Wyoming,https://www.mountainproject.com/route/105752155/middle-parallel-space,3.6,-1,Trad,5.9,2,,41.15478,-105.37467,242
Spiderman,(p) Spiderman Buttress > Smith Rock > Central Oregon > Oregon,https://www.mountainproject.com/route/105793920/spiderman,3.4,-1,Trad,5.7,2,180,44.36777,-121.14507,243
Winter Harvest,Reeds Creek > Eastern WV > West Virginia,https://www.mountainproject.com/route/110620729/winter-harvest,3.6,-1,Sport,5.8,1,70,38.785,-79.288,244
The Underling,Eastern Sky Bridge Ridge > Northern Gorge > Red River Gorge > Kentucky,https://www.mountainproject.com/route/105867266/the-underling,3.6,-1,Trad,5.9,1,100,37.81596,-83.58104,245
Mental Physics,Lenticular Dome > West Wonderland Valley > Wonderland Valley > Wonderland South > Wonderland of Rocks > Joshua Tree National Park > California,https://www.mountainproject.com/route/105721795/mental-physics,3.4,-1,Trad,5.7 PG13,2,190,34.04253,-116.14939,246
Slip 'n Slide,Lower Elbow Room > Upper Gorge > Owens River Gorge > Bishop Area > Eastern Sierra > California,https://www.mountainproject.com/route/105900092/slip-n-slide,3.6,-1,Sport,5.9,1,115,37.52328,-118.57385,247
Le Teton,f. The Guides' Wall (Madame G's) > The Trapps > The Gunks > New York,https://www.mountainproject.com/route/105841807/le-teton,3.6,-1,Trad,5.9+,1,50,41.74053,-74.18289,248
Something Interesting,e. The Mac Wall (Something Interesting) > The Trapps > The Gunks > New York,https://www.mountainproject.com/route/105799118/something-interesting,3.5,-1,Trad,5.7+,2,200,41.73936,-74.18421,249
Hackberry Crack,Walls Of Moria > West Side > Horseshoe Canyon Ranch > North-Central Arkansas > Arkansas,https://www.mountainproject.com/route/106063523/hackberry-crack,3.6,-1,Trad,5.9,1,50,36.00196,-93.29396,250
Leopard Skin,Sand Dunes > Island In The Sky > Snow Canyon State Park > Saint George > Southwest Utah > Utah,https://www.mountainproject.com/route/105891653/leopard-skin,3.3,-1,"Trad, Sport",5.7,4,260,37.19133,-113.64333,251
Arrow,h. The Arrow Wall - CCK > The Trapps > The Gunks > New York,https://www.mountainproject.com/route/105799105/arrow,3.5,-1,Trad,5.8,2,200,41.74396,-74.17964,252
Outside Corner,JHCOB Wall > Big Cottonwood Canyon > Central Wasatch > Wasatch Range > Utah,https://www.mountainproject.com/route/105740009/outside-corner,3.4,-1,Trad,5.7,3,450,40.62108,-111.74946,253
Unconquerable Crack,Main Cliff > Ragged Mountain > Central Valley > Connecticut,https://www.mountainproject.com/route/105799132/unconquerable-crack,3.5,-1,Trad,5.9+,1,80,41.6175,-72.82342,254
Crescendo,JHCOB Wall > Big Cottonwood Canyon > Central Wasatch > Wasatch Range > Utah,https://www.mountainproject.com/route/117067814/crescendo,3.4,-1,Trad,5.9,4,300,40.62108,-111.74946,255
Perversion,Mickey Mouse Wall > Eldorado Mountain > Boulder > Colorado,https://www.mountainproject.com/route/105750577/perversion,3.6,-1,Trad,5.9,3,350,39.91728,-105.28551,256
North Ridge,Montezuma Tower > Garden of the Gods > Colorado Springs > Colorado,https://www.mountainproject.com/route/105751609/north-ridge,3.4,-1,Trad,5.7,2,,38.8764,-104.88113,257
Estrellita,"Estrellita > La Cueva Canyon, Upper > Sandia Mountains > Albuquerque Area > New Mexico",https://www.mountainproject.com/route/105789299/estrellita,3.6,-1,Trad,5.8,1,110,35.20577,-106.44918,258
Birdland,b. Gelsa to Moe (closure) > The Near Trapps > The Gunks > New York,https://www.mountainproject.com/route/105800395/birdland,3.6,-1,Trad,5.8+,2,200,41.73294,-74.19626,259
Northwest Corner (a.k.a. Boving-Pollack Route),North Early Winter Spire > Liberty Bell Group > Washington Pass > North Cascades > Hwy 20 and North Cascades National Park > Northwest Region > Washington,https://www.mountainproject.com/route/105792199/northwest-corner-aka-boving-pollack-route,3.5,-1,"Trad, Alpine",5.9+,4,500,48.51291,-120.65557,260
Sykes' Sickle,Spearhead > Glacier Gorge > RMNP - Rock > Alpine Rock > Colorado,https://www.mountainproject.com/route/105748499/sykes-sickle,3.3,-1,"Trad, Alpine",5.9+,7,900,40.2567,-105.63834,261
Intimidation,"Lower Blair III > Lower Blair I, II, III, and vicinity > Blair (overview) > Vedauwoo > Laramie Area > Wyoming",https://www.mountainproject.com/route/106023889/intimidation,3.6,-1,Trad,5.9+,1,120,41.19063,-105.38913,262
Meteor,Left Wall > The Wedge > El Cajon Mountain > South San Diego County > San Diego County > California,https://www.mountainproject.com/route/107352012/meteor,3.4,-1,Sport,5.8,4,400,32.90461,-116.81845,263
Touch and Go,Touch and Go Face > Echo Rock Area > Central Joshua Tree > Joshua Tree National Park > California,https://www.mountainproject.com/route/105722359/touch-and-go,3.5,-1,Trad,5.9,1,70,34.02559,-116.1574,264
"East Face, Left Side Cracks",Pingora > Cirque of the Towers > Wind River Range > Wyoming,https://www.mountainproject.com/route/105827735/east-face-left-side-cracks,3.5,-1,"Trad, Alpine",5.7+,11,1187,42.7789,-109.226,265
High Anxiety,Lower Mount Scott > Mount Scott > Wichita Mountains Wildlife Refuge > Oklahoma,https://www.mountainproject.com/route/105904882/high-anxiety,3.6,-1,Trad,5.7,1,75,34.7486,-98.5273,266
Inca Roads,Main Face > Royal Columns > Tieton River > South-Central & Yakima > Washington,https://www.mountainproject.com/route/107128139/inca-roads,3.6,-1,Trad,5.9,1,90,46.72512,-120.80948,267
Dead Man Walking,The Dihedrals > El Potrero Chico > Nuevo Leon > Mexico > North America > International,https://www.mountainproject.com/route/106085470/dead-man-walking,3.6,-1,"Trad, Sport",5.9,1,135,25.94681,-100.47955,268
Pete's Farewell,Pitchoff Chimney Cliff > C: Keene Region > Adirondacks > New York,https://www.mountainproject.com/route/105985117/petes-farewell,3.5,-1,Trad,5.7,3,150,44.23598,-73.86449,269
Standard Route,Gallatin Tower > West Side > Gallatin Canyon > Southwest Region > Montana,https://www.mountainproject.com/route/105941845/standard-route,3.5,-1,Trad,5.8+,3,300,45.41689,-111.2342,270
Sliding Board,07. The Slabs > *Whitehorse Ledge > New Hampshire,https://www.mountainproject.com/route/105909834/sliding-board,3.5,-1,Trad,5.7 R,9,1000,44.055,-71.16605,271
Keep on Struttin',h. The Arrow Wall - CCK > The Trapps > The Gunks > New York,https://www.mountainproject.com/route/105826771/keep-on-struttin,3.6,-1,Trad,5.9+,3,250,41.74396,-74.17964,272
After The Fall,Green Adjective Gully > Little Cottonwood Canyon > Central Wasatch > Wasatch Range > Utah,https://www.mountainproject.com/route/105859843/after-the-fall,3.5,-1,Trad,5.9,1,100,40.5741,-111.7543,273
Flight of the Gumbie,6. Butcher's Branch > Kaymoor > New River Gorge Proper > The New River Gorge Region > West Virginia,https://www.mountainproject.com/route/105944377/flight-of-the-gumbie,3.5,-1,Sport,5.9+,1,80,38.05092,-81.07276,274
Conan's Gonads (Conad's),Twin Owls > Lumpy Ridge > Estes Park Valley > Colorado,https://www.mountainproject.com/route/105763716/conans-gonads-conads,3.6,-1,Trad,5.9,1,,40.4029,-105.5188,275
God's Own Drunk,Khayyam Spire > Cathedral Spires > Custer State Park > South Dakota,https://www.mountainproject.com/route/105715235/gods-own-drunk,3.6,-1,Trad,5.9,2,320,43.8481,-103.5344,276
Post Moderate,Winter Wall > Diablo Canyon > Santa Fe Area > New Mexico,https://www.mountainproject.com/route/105796992/post-moderate,3.6,-1,Sport,5.9,1,135,35.80564,-106.14022,277
Dr. Rubo's Wild Ride,Summit Block Rock > Coffeepot Rock Area > West Sedona > Sedona Area > Northern Arizona > Arizona,https://www.mountainproject.com/route/105789516/dr-rubos-wild-ride,3.5,-1,Trad,5.9+,4,300,34.88502,-111.79434,278
Pogue Ethics,Phantasia > Northern Gorge > Red River Gorge > Kentucky,https://www.mountainproject.com/route/106149020/pogue-ethics,3.5,-1,Sport,5.9+,1,80,37.84495,-83.64369,279
Braille Book,5. Higher Cathedral Rock > P. Cathedral Area > Valley South Side > Yosemite Valley > Yosemite National Park > California,https://www.mountainproject.com/route/105833552/braille-book,3.5,-1,Trad,5.8+,6,700,37.71439,-119.63469,280
North Face,Sugarloaf > Sugarloaf Area > Organ Mountains > Las Cruces Area Climbing > New Mexico,https://www.mountainproject.com/route/105834678/north-face,3.8,-1,Trad,5.7 R,9,1800,32.3474,-106.5441,281
Old Man,South Fin > 4 - Windy Point West > Mount Lemmon (Catalina Highway) > Mount Lemmon (Santa Catalina Mountains) > Southern Arizona > Arizona,https://www.mountainproject.com/route/105738335/old-man,3.6,-1,Trad,5.9,1,90,32.36751,-110.71926,282
North Ridge,Steeple Peak > Deep Lake Area > Wind River Range > Wyoming,https://www.mountainproject.com/route/105938948/north-ridge,3.5,-1,"Trad, Alpine",5.8,5,650,42.71491,-109.15911,283
Commitment,First Tier > Five Open Books > E. Yosemite Falls Area > Valley North Side > Yosemite Valley > Yosemite National Park > California,https://www.mountainproject.com/route/105867013/commitment,3.5,-1,Trad,5.9,3,320,37.74798,-119.59857,284
New Yosemite,Junkyard Wall > Junkyard Area > New River Gorge Proper > The New River Gorge Region > West Virginia,https://www.mountainproject.com/route/105943658/new-yosemite,3.5,-1,"Trad, TR",5.9,1,65,38.08299,-81.08043,285
Climb and Punishment,Reynolds Hill > Vedauwoo > Laramie Area > Wyoming,https://www.mountainproject.com/route/105752524/climb-and-punishment,3.6,-1,Trad,5.9+,1,80,41.17386,-105.35395,286
Kingsnake,West Side > Winslow Wall > East Clear Creek > Winslow Area- Hwy’s 87 & 99 Corridors > Northern Arizona > Arizona,https://www.mountainproject.com/route/106024813/kingsnake,3.6,-1,Trad,5.9+,1,130,34.9389,-110.66217,287
Construction Job,Shortoff Mountain > Linville Gorge > 2. Northern Mountains Region > North Carolina,https://www.mountainproject.com/route/105940162/construction-job,3.5,-1,Trad,5.9,3,400,35.83139,-81.90257,288
Passages,T-Wall East > The Tennessee Wall > Tennessee,https://www.mountainproject.com/route/105894863/passages,3.5,-1,Trad,5.8,1,90,35.07379,-85.40108,289
Isaiah,The Overlook > Oak Creek Canyon Overlook > Flagstaff Area > Northern Arizona > Arizona,https://www.mountainproject.com/route/105797788/isaiah,3.5,-1,Trad,5.9+,1,70,35.03049,-111.73199,290
Groove Tube,Fire Wall > Tonsai Bay > Laem Phra Nang (Railay & Tonsai) > South - Islands & Beaches > Thailand > Asia > International,https://www.mountainproject.com/route/105901068/groove-tube,3.5,-1,Sport,5.9-,1,90,8.01803,98.83026,291
Coffin Nail,West Face - Right Side > (g) West Face > Tahquitz Rock > Tahquitz & Suicide Rocks > California,https://www.mountainproject.com/route/105800099/coffin-nail,3.5,-1,Trad,5.8,2,200,33.75985,-116.68542,292
Mrs. Field's Follies,01. Sandstonia > Bubba City > New River Gorge Proper > The New River Gorge Region > West Virginia,https://www.mountainproject.com/route/106138609/mrs-fields-follies,3.5,-1,Sport,5.8,1,95,38.10049,-81.09596,293
Long John Wall,West Ridge - part B - Long John to Verschneidung > The West Ridge > Eldorado Canyon State Park > Boulder > Colorado,https://www.mountainproject.com/route/105748924/long-john-wall,3.4,-1,Trad,5.8,4,,39.9314,-105.2879,294
Maginot Line,Shortoff Mountain > Linville Gorge > 2. Northern Mountains Region > North Carolina,https://www.mountainproject.com/route/106039706/maginot-line,3.5,-1,Trad,5.7,4,300,35.83139,-81.90257,295
Batwings,Parking Lot Rock - West > Parking Lot Rock > City of Rocks > South Idaho > Idaho,https://www.mountainproject.com/route/105740951/batwings,3.5,-1,Trad,5.8+,1,180,42.08342,-113.72294,296
Black Orpheus,Black Orpheus Amphitheater > (12) Oak Creek Canyon > Red Rocks > Southern Nevada > Nevada,https://www.mountainproject.com/route/105732809/black-orpheus,3.3,-1,Trad,5.9+,8,1500,36.10256,-115.49045,297
Big Grunt,Poison Oak Boulder Area > Mount Woodson > North San Diego County > San Diego County > California,https://www.mountainproject.com/route/105941695/big-grunt,3.7,-1,TR,5.9+,1,30,33.00759,-116.96769,298
High Dive,Glass Ocean and Environs > Big Cottonwood Canyon > Central Wasatch > Wasatch Range > Utah,https://www.mountainproject.com/route/105740519/high-dive,3.5,-1,Trad,5.9+,2,150,40.61981,-111.74575,299
Backbone Ridge,"Dragontail Peak > Stuart-Enchantments > Central-East Cascades, Wenatchee, & Leavenworth > Washington",https://www.mountainproject.com/route/106073405/backbone-ridge,3.4,-1,Trad,5.9,12,2000,47.4789,-120.83318,300
Wiessner Face,Wiessner Wall > West Bluff 03 - Cleo Amphitheater > Devil's Lake > Baraboo Range > Wisconsin,https://www.mountainproject.com/route/105730283/wiessner-face,3.6,-1,"Trad, TR",5.7,1,40,43.41753,-89.73823,301
Climbin' Punishment,Southern Pillar - West Side > Southern Pillar > Seneca Rocks > West Virginia,https://www.mountainproject.com/route/106040877/climbin-punishment,3.5,-1,Trad,5.8+,3,180,38.83261,-79.36748,302
Deft Jam,Confederate Cracks > West Side > Horseshoe Canyon Ranch > North-Central Arkansas > Arkansas,https://www.mountainproject.com/route/106060483/deft-jam,3.5,-1,Trad,5.9,1,55,36.00132,-93.29346,303
Lichen or Leave It,North Peak - East Face > Seneca Rocks > West Virginia,https://www.mountainproject.com/route/106058493/lichen-or-leave-it,3.6,-1,Trad,5.8,1,90,38.83537,-79.36542,304
Orange Out Direct,The Overlook > Oak Creek Canyon Overlook > Flagstaff Area > Northern Arizona > Arizona,https://www.mountainproject.com/route/105831360/orange-out-direct,3.5,-1,Trad,5.9,1,70,35.03049,-111.73199,305
South Buttress,Pingora > Cirque of the Towers > Wind River Range > Wyoming,https://www.mountainproject.com/route/105827746/south-buttress,3.4,-1,"Trad, Alpine",5.8,4,500,42.7789,-109.226,306
Green Goblin,North Forty Routes > North Side > Horseshoe Canyon Ranch > North-Central Arkansas > Arkansas,https://www.mountainproject.com/route/105965785/green-goblin,3.4,-1,Sport,5.8,1,65,36.00881,-93.29549,307
Inferno,Inferno - Atlantis Area > 02. South Buttress > *Whitehorse Ledge > New Hampshire,https://www.mountainproject.com/route/105971326/inferno,3.5,-1,Trad,5.8,4,380,44.05123,-71.16901,308
Fantasia,East Wall > Main Formation > Lover's Leap > Highway 50 Corridor > Lake Tahoe > California,https://www.mountainproject.com/route/105735227/fantasia,3.7,-1,Trad,5.9 R,3,300,38.80261,-120.13204,309
Whiteout,Emerald City > Natural Bridge Region > Red River Gorge > Kentucky,https://www.mountainproject.com/route/105870659/whiteout,3.5,-1,Trad,5.8,2,120,37.75195,-83.66364,310
Mayflower,The Prow > Paradise Forks > Sycamore Canyon > Northern Arizona > Arizona,https://www.mountainproject.com/route/105792475/mayflower,3.5,-1,Trad,5.9,1,90,35.13773,-112.02416,311
The Wasteland,The Wasteland > East Stronghold > Cochise Stronghold > Southern Arizona > Arizona,https://www.mountainproject.com/route/105824762/the-wasteland,3.4,-1,Trad,5.8,6,600,31.94542,-109.96929,312
Fantasia,Poland Hill > Vedauwoo > Laramie Area > Wyoming,https://www.mountainproject.com/route/105753475/fantasia,3.5,-1,Trad,5.9+,1,70,41.16696,-105.39746,313
Swamp Rat,Cliffs of Insanity > East Side > Horseshoe Canyon Ranch > North-Central Arkansas > Arkansas,https://www.mountainproject.com/route/106264981/swamp-rat,3.5,-1,Sport,5.8,1,70,36.0049,-93.2846,314
New Era,East Face > Kindergarten Rock > Garden of the Gods > Colorado Springs > Colorado,https://www.mountainproject.com/route/105753640/new-era,3.4,-1,Trad,5.7,2,270,38.87475,-104.87948,315
Carter Classic,Davis Face > Buena Vista > Colorado,https://www.mountainproject.com/route/105854035/carter-classic,3.5,-1,Trad,5.9,5,500,38.91645,-106.10438,316
Ruben,Jimmywood > Foster Falls > Tennessee,https://www.mountainproject.com/route/109079486/ruben,3.5,-1,Sport,5.9,1,90,35.17715,-85.68247,317
Long Time No See,North Apron > The Apron > Stawamus Chief > Squamish > British Columbia > Canada > North America > International,https://www.mountainproject.com/route/113441195/long-time-no-see,3.3,-1,Trad,5.9,9,825,49.68766,-123.14493,318
The Classic,Middle Section > Granite Mountain > **Prescott Area > Central Arizona > Arizona,https://www.mountainproject.com/route/105978422/the-classic,3.5,-1,Trad,5.7+,3,,34.62908,-112.56665,319
Too Much Fun,Bumblie Rock > City of Rocks > South Idaho > Idaho,https://www.mountainproject.com/route/105742073/too-much-fun,3.5,-1,Sport,5.8,1,150,42.07848,-113.7135,320
Labyrinth,Reynolds Hill > Vedauwoo > Laramie Area > Wyoming,https://www.mountainproject.com/route/105895689/labyrinth,3.5,-1,"Trad, TR",5.9,2,,41.17386,-105.35395,321
West Face Variation Direct,(s) Monkey Face > Smith Rock > Central Oregon > Oregon,https://www.mountainproject.com/route/107304319/west-face-variation-direct,3.4,-1,Trad,5.8,2,,44.37053,-121.14363,322
Sweet Thin,Brownstone Wall > (11) Juniper Canyon > Red Rocks > Southern Nevada > Nevada,https://www.mountainproject.com/route/106961976/sweet-thin,3.4,-1,Trad,5.9,7,730,36.11483,-115.4957,323
Pointy Little Devil,Shakers > Monster North > Magna Carta > Mount Rushmore National Memorial > The Needles Of Rushmore > South Dakota,https://www.mountainproject.com/route/106668127/pointy-little-devil,3.5,-1,Sport,5.8,1,115,43.88366,-103.46281,324
Casual Viewing,Global Village > Natural Bridge Region > Red River Gorge > Kentucky,https://www.mountainproject.com/route/105878287/casual-viewing,3.5,-1,Trad,5.7,1,70,37.75161,-83.65731,325
Paradise Alley,Shortoff Mountain > Linville Gorge > 2. Northern Mountains Region > North Carolina,https://www.mountainproject.com/route/106174037/paradise-alley,3.5,-1,Trad,5.8+,4,450,35.83139,-81.90257,326
Sidetrack,Sundance Buttress > Lumpy Ridge > Estes Park Valley > Colorado,https://www.mountainproject.com/route/105750193/sidetrack,3.4,-1,Trad,5.9,6,900,40.41269,-105.5516,327
The West Chimney,The Eaglet > Hounds Hump Ridge (Eaglet etc) > WM: Franconia Notch > New Hampshire,https://www.mountainproject.com/route/105999228/the-west-chimney,3.4,-1,Trad,5.7,3,200,44.17119,-71.67711,328
Lost Face Finger Crack,05: Lost Face Area > 1: Prospect Point Rampart > West Bluff 05 - West Rampart > Devil's Lake > Baraboo Range > Wisconsin,https://www.mountainproject.com/route/105954279/lost-face-finger-crack,3.5,-1,"Trad, TR",5.7,1,100,43.42052,-89.73831,329
Ragged Edge,Vesper Peak > Glacier Peak Wilderness > Darrington and Mountain Loop Hwy > Northwest Region > Washington,https://www.mountainproject.com/route/111130499/ragged-edge,3.3,-1,"Trad, Alpine",5.7,6,,48.01293,-121.51801,330
Permanent Income Hypothesis,Right Side Gully > The Fortress > Hwy 33/Ojai > Central Coast > California,https://www.mountainproject.com/route/105906865/permanent-income-hypothesis,3.5,-1,Sport,5.9,1,180,34.58355,-119.26301,331
Chewbacca,Cracked Canyon > Ophir > Telluride/Norwood area > Colorado,https://www.mountainproject.com/route/105765087/chewbacca,3.6,-1,Trad,5.8,1,90,37.8605,-107.86263,332
Swiss Arete,Mt. Sill > 09 - Palisades & Surrounding Peaks > High Sierra > California,https://www.mountainproject.com/route/105804092/swiss-arete,3.4,-1,"Trad, Alpine",5.7,6,800,37.0959,-118.503,333
More Funky Than Gunky,Camel Jockey > Sinks Canyon > Lander Area > Wyoming,https://www.mountainproject.com/route/105827721/more-funky-than-gunky,3.5,-1,Sport,5.9,1,70,42.74111,-108.83388,334
Jamcrack,Sunnyside Bench > E. Yosemite Falls Area > Valley North Side > Yosemite Valley > Yosemite National Park > California,https://www.mountainproject.com/route/105866367/jamcrack,3.5,-1,Trad,5.9,2,160,37.7507,-119.59446,335
Crazy Alice,Zoo Wall > The Narrows > Wichita Mountains Wildlife Refuge > Oklahoma,https://www.mountainproject.com/route/105860080/crazy-alice,3.5,-1,Trad,5.8,1,60,34.69731,-98.66948,336
Mr. Clean,The Barkeater Cliff > C: Keene Region > Adirondacks > New York,https://www.mountainproject.com/route/106049524/mr-clean,3.5,-1,Trad,5.8+,1,60,44.25695,-73.8634,337
Simians to the Sun,I. Watch Crystal > East  Animas > Durango > Colorado,https://www.mountainproject.com/route/105820922/simians-to-the-sun,3.5,-1,"Trad, Sport",5.9+,2,250,37.32033,-107.83351,338
R.J. Gold,Sunset North > Sunset Park > Tennessee,https://www.mountainproject.com/route/105910145/rj-gold,3.5,-1,Trad,5.9,1,90,34.9992,-85.3554,339
Red Dihedral,"D: Red Dihedral Wall > 2: North, Climber's Right of Stairs > EM: Robinson Bluff > Missouri",https://www.mountainproject.com/route/114210985/red-dihedral,3.6,-1,Sport,5.9,1,50,38.01256,-90.62625,340
Dufty's Popoff,Southeast Corner > South Peak - East Face > Seneca Rocks > West Virginia,https://www.mountainproject.com/route/107265652/duftys-popoff,3.5,-1,Trad,5.7 PG13,1,130,38.83343,-79.36659,341
Turkey Shoot,Turkey Rock > Turkey Rocks > South Platte > Colorado,https://www.mountainproject.com/route/105752737/turkey-shoot,3.5,-1,Trad,5.9,3,,39.11917,-105.23983,342
Orange Crush,The Far East > East Side > Horseshoe Canyon Ranch > North-Central Arkansas > Arkansas,https://www.mountainproject.com/route/105988227/orange-crush,3.5,-1,Sport,5.9+,1,80,36.00394,-93.28377,343
Ace of Spades,White Cliffs of Dover - Left Side > White Cliffs of Dover > Quail Springs Area > Joshua Tree National Park > California,https://www.mountainproject.com/route/105722716/ace-of-spades,3.5,-1,Trad,5.9,1,80,34.02919,-116.199,344
Community Pillar,North Face > Magic Mountain > (10) Pine Creek Canyon > Red Rocks > Southern Nevada > Nevada,https://www.mountainproject.com/route/105732959/community-pillar,3.5,-1,Trad,5.9,8,700,36.12126,-115.49023,345
Turner's Flake,Thin Air Face > *Cathedral Ledge > New Hampshire,https://www.mountainproject.com/route/105881452/turners-flake,3.5,-1,Trad,5.8,1,120,44.06342,-71.16578,346
Strawberry Jam,Crystal Freeway > Vedauwoo > Laramie Area > Wyoming,https://www.mountainproject.com/route/105752185/strawberry-jam,3.5,-1,Trad,5.8,2,,41.16452,-105.37205,347
Dippy Diagonal,Lower Major Mass > 3. Doorway Rocks - Major Mass > East Bluff 05 - Potholes Area > Devil's Lake > Baraboo Range > Wisconsin,https://www.mountainproject.com/route/105730442/dippy-diagonal,3.5,-1,"Trad, TR",5.7,1,,43.41382,-89.71997,348
Bon Homme Variation,South and East Faces > Devils Tower > Wyoming,https://www.mountainproject.com/route/105714902/bon-homme-variation,3.4,-1,Trad,5.8,3,300,44.58986,-104.71457,349
Good Times,Eastern Sky Bridge Ridge > Northern Gorge > Red River Gorge > Kentucky,https://www.mountainproject.com/route/105917970/good-times,3.5,-1,Trad,5.8+,1,100,37.81596,-83.58104,350
Plumb Line,Lower Tier > Plumb Line Crag > 700L/Plumb Line Area > Vedauwoo > Laramie Area > Wyoming,https://www.mountainproject.com/route/105764358/plumb-line,3.5,-1,Trad,5.9+,1,40,41.15629,-105.32604,351
After All This Time,The Balcony > *Rumney > New Hampshire,https://www.mountainproject.com/route/110964463/after-all-this-time,3.5,-1,Sport,5.7,1,50,43.80293,-71.83505,352
Poison Ivy,Poison Ivy Wall > 7. The Throne > Sam's Throne > Sam's Throne & Surroundings > North-Central Arkansas > Arkansas,https://www.mountainproject.com/route/105901659/poison-ivy,3.5,-1,Trad,5.7+,1,55,35.87134,-93.05191,353
Nirvana,Nirvana Buttress > Boynton Canyon > Dry Creek Road Area > West Sedona > Sedona Area > Northern Arizona > Arizona,https://www.mountainproject.com/route/112488684/nirvana,3.4,-1,Trad,5.9,3,210,34.91748,-111.84955,354
R-4,Rupley Towers > 3 - Windy Point East > Mount Lemmon (Catalina Highway) > Mount Lemmon (Santa Catalina Mountains) > Southern Arizona > Arizona,https://www.mountainproject.com/route/105738806/r-4,3.6,-1,Trad,5.9,1,130,32.36736,-110.71377,355
Nova Express,3. East Face Main > East Face > Snowshed Wall > Donner Summit > I-80 Corridor > Lake Tahoe > California,https://www.mountainproject.com/route/105885835/nova-express,3.5,-1,Trad,5.9+,1,80,39.31601,-120.31834,356
Breakfast of Champions,South Astro Dome - Northeast Face > South Astro Dome > The Astro Domes > West Wonderland Valley > Wonderland Valley > Wonderland South > Wonderland of Rocks > Joshua Tree National Park > California,https://www.mountainproject.com/route/105721861/breakfast-of-champions,3.5,-1,Trad,5.8+,2,170,34.03858,-116.14713,357
Jellyroll Arch,East Face > Grouse Slab > Donner Summit > I-80 Corridor > Lake Tahoe > California,https://www.mountainproject.com/route/105735152/jellyroll-arch,3.4,-1,Trad,5.8,2,200,39.32288,-120.31851,358
Boilerplate,The Crossroads > Pendergrass-Murray Recreational Preserve (PMRP) > Red River Gorge > Kentucky,https://www.mountainproject.com/route/106876099/boilerplate,3.4,-1,Sport,5.8,1,50,37.67609,-83.73312,359
Direct South Ridge,Notchtop > RMNP - Rock > Alpine Rock > Colorado,https://www.mountainproject.com/route/105749044/direct-south-ridge,3.4,-1,"Trad, Alpine",5.9,7,,40.3186,-105.694,360
Toe Crack,Thin Air Face > *Cathedral Ledge > New Hampshire,https://www.mountainproject.com/route/105949212/toe-crack,3.4,-1,Trad,5.7,2,100,44.06342,-71.16578,361
Ga-stoned Again,The Gym > Shelf Road > Canon City > Colorado,https://www.mountainproject.com/route/105761217/ga-stoned-again,3.5,-1,Sport,5.9,1,80,38.6329,-105.2165,362
South Crack,Stately Pleasure Dome > Tuolumne Meadows > Yosemite National Park > California,https://www.mountainproject.com/route/105840361/south-crack,3.4,-1,"Trad, Alpine",5.8 R,6,600,37.83546,-119.4577,363
"Monday Morning Slab, Harry Daley Route",5. Monday Morning Slab > I. Glacier Point Apron > Valley South Side > Yosemite Valley > Yosemite National Park > California,https://www.mountainproject.com/route/105939242/monday-morning-slab-harry-daley-route,3.5,-1,Trad,5.8,2,210,37.73295,-119.56601,364
The Dike Route,Pywiack Dome > Tuolumne Meadows > Yosemite National Park > California,https://www.mountainproject.com/route/105862957/the-dike-route,3.5,-1,"Trad, Sport",5.9 R,5,,37.8453,-119.444,365
Psychedelic Tree,East Wall > Main Formation > Lover's Leap > Highway 50 Corridor > Lake Tahoe > California,https://www.mountainproject.com/route/105928449/psychedelic-tree,3.5,-1,Trad,5.9,3,350,38.80261,-120.13204,366
Bee Line,Stronghold Dome > East Stronghold > Cochise Stronghold > Southern Arizona > Arizona,https://www.mountainproject.com/route/105738266/bee-line,3.5,-1,Trad,5.9 R,2,280,31.93005,-109.97094,367
Junco,Jimmy Cliff > *Rumney > New Hampshire,https://www.mountainproject.com/route/105876683/junco,3.3,-1,Sport,5.8+,1,80,43.80417,-71.84037,368
St. Vitus' Dance,North Apron > The Apron > Stawamus Chief > Squamish > British Columbia > Canada > North America > International,https://www.mountainproject.com/route/105843781/st-vitus-dance,3.4,-1,Trad,5.9,5,600,49.68766,-123.14493,369
Party Time,Fortress Wall > Northern Gorge > Red River Gorge > Kentucky,https://www.mountainproject.com/route/105870326/party-time,3.5,-1,Trad,5.7,2,110,37.83768,-83.64701,370
The Black Rose,The Obsidian Wall > Paradise Forks > Sycamore Canyon > Northern Arizona > Arizona,https://www.mountainproject.com/route/105792351/the-black-rose,3.5,-1,Trad,5.8+,1,70,35.13866,-112.02577,371
The 37th Cog in Melvin's Wheel aka Melvin's Wheel,The Bookmark > Lumpy Ridge > Estes Park Valley > Colorado,https://www.mountainproject.com/route/105756799/the-37th-cog-in-melvins-wheel-aka-melvins-wheel,3.4,-1,Trad,5.8,3,,40.40613,-105.53571,372
Bombardment,Lower Left Wall / Ventilator Slabs > *Cathedral Ledge > New Hampshire,https://www.mountainproject.com/route/105903672/bombardment,3.4,-1,Trad,5.8,2,160,44.06236,-71.1652,373
Dancing Outlaw,North Forty Routes > North Side > Horseshoe Canyon Ranch > North-Central Arkansas > Arkansas,https://www.mountainproject.com/route/107326739/dancing-outlaw,3.5,-1,Sport,5.9+,1,70,36.00881,-93.29549,374
Mr. Clean,Lower Mount Scott > Mount Scott > Wichita Mountains Wildlife Refuge > Oklahoma,https://www.mountainproject.com/route/105914923/mr-clean,3.5,-1,Trad,5.8,1,65,34.7486,-98.5273,375
The Second Coming,Muralla Grande > Chimney Canyon > Sandia Mountains > Albuquerque Area > New Mexico,https://www.mountainproject.com/route/105789961/the-second-coming,3.4,-1,Trad,5.8,4,,35.2152,-106.455,376
Nutcracker 5.9 Start Variation,5. Manure Pile Buttress (aka Ranger Rock) > C. El Cap Picnic Area (Eagle Creek) > Valley North Side > Yosemite Valley > Yosemite National Park > California,https://www.mountainproject.com/route/105862632/nutcracker-59-start-variation,3.5,-1,Trad,5.9,2,200,37.73059,-119.619,377
Art,T-Wall East > The Tennessee Wall > Tennessee,https://www.mountainproject.com/route/105935012/art,3.4,-1,Trad,5.8,1,80,35.07379,-85.40108,378
Tintin au Tibet,04. Prestation > L'Amphitheatre > Saint-Andre-de-Kamouraska > 01. Bas-Saint-Laurent > Quebec > Canada > North America > International,https://www.mountainproject.com/route/107784197/tintin-au-tibet,3.5,-1,Sport,5.9+,1,55,47.65239,-69.73401,379
Peter's Project,09: Many Pines Buttress > East Bluff 04 - East Rampart > Devil's Lake > Baraboo Range > Wisconsin,https://www.mountainproject.com/route/105730691/peters-project,3.5,-1,"Trad, TR",5.7,1,60,43.4137,-89.71365,380
Wild Will's Arete,Area 13 - Left Side > Area 13 > Clark Canyon > Mammoth Lakes Area > Eastern Sierra > California,https://www.mountainproject.com/route/105843724/wild-wills-arete,3.5,-1,Sport,5.8,1,115,37.78854,-118.91226,381
Roger's Roof,7.3 - Horse Rampart > East Bluff 07 - Railroad Tracks > Devil's Lake > Baraboo Range > Wisconsin,https://www.mountainproject.com/route/105730391/rogers-roof,3.5,-1,"Trad, TR",5.8+ PG13,1,,43.41665,-89.72612,382
"Absolutely Free, Center",2. Lower Brother > D. Camp 4 Area > Valley North Side > Yosemite Valley > Yosemite National Park > California,https://www.mountainproject.com/route/106451171/absolutely-free-center,3.4,-1,Trad,5.9,3,700,37.73378,-119.61232,383
East Face,Lexington Tower > Liberty Bell Group > Washington Pass > North Cascades > Hwy 20 and North Cascades National Park > Northwest Region > Washington,https://www.mountainproject.com/route/106482011/east-face,3.4,-1,"Trad, Alpine",5.9+,10,800,48.5144,-120.6575,384
"Blood, Sweat and Chalk",Impact Zone > Main Wall > Franklin Gorge > Eastern WV > West Virginia,https://www.mountainproject.com/route/106188769/blood-sweat-and-chalk,3.5,-1,Sport,5.9+,1,70,38.66516,-79.32026,385
Main Crack,Ed and Terry Wall > Rock Canyon > Southern Wasatch > Wasatch Range > Utah,https://www.mountainproject.com/route/105741227/main-crack,3.4,-1,Trad,5.7,1,100,40.2645,-111.6232,386
Fish and Chips,Creek Side > Clear Creek Canyon > Golden > Colorado,https://www.mountainproject.com/route/105763797/fish-and-chips,3.5,-1,Sport,5.9+,1,115,39.74102,-105.41042,387
Screw,Valley Massif > Vedauwoo > Laramie Area > Wyoming,https://www.mountainproject.com/route/105751207/screw,3.5,-1,Trad,5.7,2,,41.17325,-105.37667,388
Werk Supp,The Bastille - N Face > The Bastille > Eldorado Canyon State Park > Boulder > Colorado,https://www.mountainproject.com/route/105749890/werk-supp,3.4,-1,Trad,5.9,2,170,39.9307,-105.283,389
New Deviations,Ap. New Diversions > Lower Merced River Canyon > Yosemite Valley > Yosemite National Park > California,https://www.mountainproject.com/route/106807133/new-deviations,3.5,-1,Trad,5.9,1,150,37.72262,-119.70258,390
Sweet Sunday Serenade,Sunday Wall > The Access Fund Trailhead > Main Canyon: Unaweep Granite > Unaweep Canyon > Grand Junction Area > Colorado,https://www.mountainproject.com/route/105754675/sweet-sunday-serenade,3.4,-1,Trad,5.9,3,,38.81832,-108.60765,391
Brinton's Direct,07: Brinton's Buttress > East Bluff 04 - East Rampart > Devil's Lake > Baraboo Range > Wisconsin,https://www.mountainproject.com/route/105730868/brintons-direct,3.5,-1,"Trad, TR",5.8+,1,90,43.41359,-89.71303,392
Return to Forever  - (mid-cliff START),The Precipice aka The South Wall > -Acadia National Park > Maine,https://www.mountainproject.com/route/105998473/return-to-forever-mid-cliff-start,3.5,-1,Trad,5.9,1,95,44.34691,-68.19013,393
Charybdis,17: Hawk's Nest > East Bluff 04 - East Rampart > Devil's Lake > Baraboo Range > Wisconsin,https://www.mountainproject.com/route/105730940/charybdis,3.5,-1,"Trad, TR",5.7 PG13,1,90,43.41353,-89.7158,394
Return of the King,C. Wizard's Gate > Lower Great Face > The Crags > CO Hwy 7 & Tributaries > Estes Park Valley > Colorado,https://www.mountainproject.com/route/119095616/return-of-the-king,3.6,-1,Sport,5.8,5,400,40.30276,-105.52422,395
Three Star Salad Bar,Salad Bar > Denny East > Denny Cove > Tennessee,https://www.mountainproject.com/route/112813663/three-star-salad-bar,3.4,-1,Sport,5.9,1,85,35.15346,-85.67507,396
Prime Rib,Goat Wall > Mazama > Okanogan > Washington,https://www.mountainproject.com/route/107730934/prime-rib,2.9,-1,Sport,5.9-,11,1300,48.62285,-120.44865,397
High Mountain Woody,Starr Wall > The Malamute > Squamish > British Columbia > Canada > North America > International,https://www.mountainproject.com/route/105934194/high-mountain-woody,3.5,-1,Trad,5.8+,1,150,49.68214,-123.15604,398
Ending Crack,Sespe Gorge (Black Wall) > Hwy 33/Ojai > Central Coast > California,https://www.mountainproject.com/route/105796895/ending-crack,3.4,-1,Trad,5.7 PG13,2,300,34.5776,-119.2579,399
Pakistani Route,Big Black Face > Sunshine > Spearfish Canyon > South Dakota,https://www.mountainproject.com/route/106138388/pakistani-route,3.5,-1,Sport,5.9+,1,95,44.29371,-103.8935,400
The Arete,9. The Dream Wall > Echo Crag > WM: Franconia Notch > New Hampshire,https://www.mountainproject.com/route/106595179/the-arete,3.5,-1,Trad,5.8,1,110,44.17601,-71.68788,401
Comatose,Comatose Area > Rumbling Bald > 1. Southern Mountains Region > North Carolina,https://www.mountainproject.com/route/105937288/comatose,3.4,-1,Trad,5.8,1,100,35.4499,-82.21438,402
Dappled Mare,Lost Horse Wall - Right Side > Lost Horse Wall > Lost Horse Area > Joshua Tree National Park > California,https://www.mountainproject.com/route/105722305/dappled-mare,3.3,-1,Trad,5.8,4,300,34.02166,-116.1788,403
Central Scrutinizer,Pebble Beach > Northern Gorge > Red River Gorge > Kentucky,https://www.mountainproject.com/route/105865483/central-scrutinizer,3.5,-1,Trad,5.9,1,50,37.8588,-83.67163,404
Orbit,"Snow Creek Wall > Snow Creek Area > Icicle Creek > Leavenworth > Central-East Cascades, Wenatchee, & Leavenworth > Washington",https://www.mountainproject.com/route/106768055/orbit,3.3,-1,Trad,5.8+ PG13,7,800,47.52963,-120.71869,405
The Big Deal,PSOM Slab > Scheelite Crags / PSOM Slab > Pine Creek Canyon > Bishop Area > Eastern Sierra > California,https://www.mountainproject.com/route/108117647/the-big-deal,3.3,-1,Trad,5.9,4,400,37.38788,-118.6742,406
Prerequisite for Excellence,T-Wall East > The Tennessee Wall > Tennessee,https://www.mountainproject.com/route/105888371/prerequisite-for-excellence,3.4,-1,Trad,5.8,1,80,35.07379,-85.40108,407
Lost Face Overhangs I & II,05: Lost Face Area > 1: Prospect Point Rampart > West Bluff 05 - West Rampart > Devil's Lake > Baraboo Range > Wisconsin,https://www.mountainproject.com/route/105954271/lost-face-overhangs-i-ii,3.6,-1,"Trad, TR",5.8,1,100,43.42052,-89.73831,408
Beckey's Wall,Beckey's Wall Area > Gate Buttress > Little Cottonwood Canyon > Central Wasatch > Wasatch Range > Utah,https://www.mountainproject.com/route/105740507/beckeys-wall,3.3,-1,Trad,5.7,3,160,40.5729,-111.7529,409
Strictly From Nowhere,d. Strictly - The Ceiling > The Trapps > The Gunks > New York,https://www.mountainproject.com/route/105799704/strictly-from-nowhere,3.4,-1,Trad,5.7,2,170,41.73894,-74.18478,410
Wonderland,Pixie Corner > The Smoke Bluffs > Squamish > British Columbia > Canada > North America > International,https://www.mountainproject.com/route/106173589/wonderland,3.5,-1,Trad,5.9,1,125,49.7067,-123.1398,411
Jawa Jam,Tatooine > Galaxy Area > Rock Canyon > Southern Wasatch > Wasatch Range > Utah,https://www.mountainproject.com/route/106405078/jawa-jam,3.5,-1,Sport,5.9,1,115,40.26667,-111.61443,412
Annie Oh!,h. The Arrow Wall - CCK > The Trapps > The Gunks > New York,https://www.mountainproject.com/route/105801570/annie-oh,3.4,-1,Trad,5.8+,2,220,41.74396,-74.17964,413
Smokestack,New Wave > *Rumney > New Hampshire,https://www.mountainproject.com/route/105998986/smokestack,3.4,-1,Sport,5.9+,1,,43.80285,-71.83444,414
Valdez Overhang,Birthday Rock > Chopping Block > Mount Rushmore National Memorial > The Needles Of Rushmore > South Dakota,https://www.mountainproject.com/route/105714995/valdez-overhang,3.5,-1,"Sport, TR",5.9,1,40,43.88449,-103.46749,415
Lost Ego,Sentinel Area > Interstate Park > Northwest > Wisconsin,https://www.mountainproject.com/route/105842662/lost-ego,3.4,-1,"Trad, TR",5.8+,1,50,45.39798,-92.65094,416
Scimitar,East Wall > Main Formation > Lover's Leap > Highway 50 Corridor > Lake Tahoe > California,https://www.mountainproject.com/route/105806605/scimitar,3.4,-1,Trad,5.9 R,3,400,38.80261,-120.13204,417
Diagonal,Combat Rock > Big Thompson Canyon > Estes Park Valley > Colorado,https://www.mountainproject.com/route/105764223/diagonal,3.4,-1,Trad,5.9,2,,40.44204,-105.34428,418
Pine Tree Eliminate,Airation Buttress > *Cathedral Ledge > New Hampshire,https://www.mountainproject.com/route/105920872/pine-tree-eliminate,3.4,-1,Trad,5.8+,1,90,44.06337,-71.16628,419
Half-A-Finger,Dihedrals Area > Gate Buttress > Little Cottonwood Canyon > Central Wasatch > Wasatch Range > Utah,https://www.mountainproject.com/route/105740039/half-a-finger,3.4,-1,Trad,5.9+,1,80,40.57311,-111.75298,420
Green Wall,South Peak West Face (Main Area) > South Peak - West Face > Seneca Rocks > West Virginia,https://www.mountainproject.com/route/105917255/green-wall,3.4,-1,Trad,5.7,3,,38.83453,-79.36677,421
West Pillar,Eichorn Pinnacle > Cathedral Range > Tuolumne Meadows > Yosemite National Park > California,https://www.mountainproject.com/route/106110296/west-pillar,3.3,-1,"Trad, Alpine",5.9,5,600,37.84763,-119.40724,422
Bartleby -(Central Slab),The Precipice aka The South Wall > -Acadia National Park > Maine,https://www.mountainproject.com/route/106489240/bartleby-central-slab,3.4,-1,Trad,5.8,1,60,44.34691,-68.19013,423
Young Warriors,South Face > Beacon Rock > Columbia Gorge > South-West & Tacoma > Washington,https://www.mountainproject.com/route/107745977/young-warriors,3.4,-1,Trad,5.9,5,500,45.6268,-122.01974,424
Mother   1,Nautilus > Vedauwoo > Laramie Area > Wyoming,https://www.mountainproject.com/route/105751369/mother-1,3.4,-1,Trad,5.7+,1,,41.15478,-105.37467,425
Moby Dick,Whale Dome > West Stronghold > Cochise Stronghold > Southern Arizona > Arizona,https://www.mountainproject.com/route/105738239/moby-dick,3.3,-1,Trad,5.8,6,700,31.93969,-109.99315,426
Octopus Garden in the Shade,Octopus Garden > The Smoke Bluffs > Squamish > British Columbia > Canada > North America > International,https://www.mountainproject.com/route/105963366/octopus-garden-in-the-shade,3.4,-1,"Trad, TR",5.8,1,60,49.7081,-123.1346,427
Ewephoria,The Sheepshead > Sheepshead Area (Southwest) > West Stronghold > Cochise Stronghold > Southern Arizona > Arizona,https://www.mountainproject.com/route/105861181/ewephoria,3.2,-1,Trad,5.8,5,750,31.87031,-109.99388,428
Popular Mechanics,White Cliffs of Dover - Left Side > White Cliffs of Dover > Quail Springs Area > Joshua Tree National Park > California,https://www.mountainproject.com/route/105723478/popular-mechanics,3.4,-1,Trad,5.9,1,80,34.02919,-116.199,429
5 Gallon Buckets,(g) Morning Glory Wall > Smith Rock > Central Oregon > Oregon,https://www.mountainproject.com/route/105789060/5-gallon-buckets,3.2,-1,Sport,5.8,1,60,44.36716,-121.14353,430
Limelight,h. The Arrow Wall - CCK > The Trapps > The Gunks > New York,https://www.mountainproject.com/route/105801563/limelight,3.3,-1,Trad,5.7,2,180,41.74396,-74.17964,431
Slim Pickins,The Spider's Web > B: Chapel Pond Pass > Adirondacks > New York,https://www.mountainproject.com/route/106002348/slim-pickins,3.4,-1,Trad,5.9+,1,90,44.1454,-73.75082,432
Calculus Crack,North Apron > The Apron > Stawamus Chief > Squamish > British Columbia > Canada > North America > International,https://www.mountainproject.com/route/106495528/calculus-crack,3.2,-1,Trad,5.8,5,,49.68766,-123.14493,433
Cryptic,Headstone Rock > Ryan Campground > Sheep Pass Area > Central Joshua Tree > Joshua Tree National Park > California,https://www.mountainproject.com/route/105721750/cryptic,3.1,-1,Sport,5.8,1,50,33.98437,-116.15237,434
Open Book,Disappointment Peak > Grand Teton National Park > Wyoming,https://www.mountainproject.com/route/105803655/open-book,3.5,-1,"Trad, Alpine",5.9,6,800,43.73345,-110.79302,435
Watermarks,2.  Balanced Rock Wall > East Bluff 06 - Balanced Rock > Devil's Lake > Baraboo Range > Wisconsin,https://www.mountainproject.com/route/105730307/watermarks,3.4,-1,"Trad, TR",5.8,1,50,43.41436,-89.72501,436
Spooky,"The Charlatan > The Needles > Southern Sierra - The Needles, Kern River, Domelands, etc. > Southern-Western Sierra > California",https://www.mountainproject.com/route/105834227/spooky,3.4,-1,Trad,5.9,2,175,36.10825,-118.48129,437
High Test,Upper Broadway > South Peak - East Face > Seneca Rocks > West Virginia,https://www.mountainproject.com/route/106193027/high-test,3.9,-1,Trad,5.9+,1,120,38.8344,-79.36659,438
Slot Machine,Bulletheads South > The Bulletheads > Stawamus Chief > Squamish > British Columbia > Canada > North America > International,https://www.mountainproject.com/route/105842934/slot-machine,3.4,-1,Trad,5.8+,2,300,49.67672,-123.15268,439
Touch and Go,1. Black Wall - Left > Black Wall > Donner Summit > I-80 Corridor > Lake Tahoe > California,https://www.mountainproject.com/route/106180304/touch-and-go,3.4,-1,Trad,5.9,4,370,39.32485,-120.31463,440
Friday's Folly,Third Flatiron > North > Flatirons > Boulder > Colorado,https://www.mountainproject.com/route/105750460/fridays-folly,3.3,-1,Trad,5.7,1,80,39.9874,-105.29196,441
Guide's Wall,Cascade Canyon > Grand Teton National Park > Wyoming,https://www.mountainproject.com/route/105804246/guides-wall,3.3,-1,"Trad, Alpine",5.8,6,,43.76279,-110.746,442
Horse d'Oeuvre (aka Pony Express P1 to Zip Code aka Pony Code),West Ridge - part C - Pony Express to Long John > The West Ridge > Eldorado Canyon State Park > Boulder > Colorado,https://www.mountainproject.com/route/106579556/horse-doeuvre-aka-pony-express-p1-to-zip-code-aka-pony-code,3.4,-1,Trad,5.9,1,140,39.93203,-105.28849,443
MRC Direct,Old Easy > Vedauwoo > Laramie Area > Wyoming,https://www.mountainproject.com/route/105751435/mrc-direct,3.4,-1,Trad,5.9,2,,41.1632,-105.37104,444
Shock and Awe,The Hideout > Muir Valley > Red River Gorge > Kentucky,https://www.mountainproject.com/route/106789874/shock-and-awe,3.4,-1,Trad,5.7,1,95,37.73189,-83.63725,445
The Hot Zone,The Catacomb > The Monastery > Big Thompson Canyon > Estes Park Valley > Colorado,https://www.mountainproject.com/route/105756643/the-hot-zone,3.4,-1,Sport,5.9-,1,,40.45337,-105.3695,446
Metamorphosis,Armed and Dangerous (Main Cliff Left) > *Rumney > New Hampshire,https://www.mountainproject.com/route/105959363/metamorphosis,3.4,-1,Sport,5.8+,1,,43.80202,-71.83678,447
Flakes,Ed and Terry Wall > Rock Canyon > Southern Wasatch > Wasatch Range > Utah,https://www.mountainproject.com/route/105741680/flakes,3.4,-1,"Trad, TR",5.7,1,110,40.2645,-111.6232,448
The Convict,The Maze  (aka Amaze-ing) > Vedauwoo > Laramie Area > Wyoming,https://www.mountainproject.com/route/109253292/the-convict,3.4,-1,Sport,5.9-,1,,41.18017,-105.32848,449
Breakfast of Champions,11: Bill's Buttress > East Bluff 04 - East Rampart > Devil's Lake > Baraboo Range > Wisconsin,https://www.mountainproject.com/route/105948596/breakfast-of-champions,3.4,-1,Trad,5.9,1,70,43.41366,-89.71414,450
Beckey Route,El Segundo Buttress > Whitney Portal > Lone Pine Area > Eastern Sierra > California,https://www.mountainproject.com/route/106477993/beckey-route,3.4,-1,Trad,5.9,5,750,36.59295,-118.23459,451
Frontside 180,Mt. Chek > Electric Avenue > Chek > Sea to Sky (Squamish to Whistler) > British Columbia > Canada > North America > International,https://www.mountainproject.com/route/117387778/frontside-180,3.1,-1,Sport,5.7,10,720,49.90261,-123.15917,452
Marshall's Madness,South Peak West Face (Main Area) > South Peak - West Face > Seneca Rocks > West Virginia,https://www.mountainproject.com/route/107617999/marshalls-madness,3.4,-1,Trad,5.9,3,165,38.83453,-79.36677,453
Double Helix (aka Rikert's Corner),02 - Main Face > Rose Ledge > Western MA > Massachusetts,https://www.mountainproject.com/route/105805595/double-helix-aka-rikerts-corner,3.4,-1,"Trad, TR",5.9,1,40,42.6105,-72.4711,454
Touch 'N' Go,Redgarden - Tower Two > Redgarden Wall > Eldorado Canyon State Park > Boulder > Colorado,https://www.mountainproject.com/route/105749032/touch-n-go,3.3,-1,Trad,5.9-,1,130,39.9312,-105.28518,455
Mushroom,"Main Area, Frontside > The Papoose > Shannon Falls > Squamish > British Columbia > Canada > North America > International",https://www.mountainproject.com/route/106215913/mushroom,3.4,-1,Trad,5.9,1,80,49.66841,-123.16594,456
Plum Pudding,Mid Wall > Middle Town Walls > Index > Skykomish Valley > Central-West Cascades & Seattle > Washington,https://www.mountainproject.com/route/106386419/plum-pudding,3.4,-1,Trad,5.9,1,70,47.8191,-121.5719,457
Black Dagger,Brownstone Wall > (11) Juniper Canyon > Red Rocks > Southern Nevada > Nevada,https://www.mountainproject.com/route/105732395/black-dagger,3.3,-1,Trad,5.8 PG13,6,800,36.11483,-115.4957,458
Johnny Vegas,Solar Slab - Lower Tier > (12) Oak Creek Canyon > Red Rocks > Southern Nevada > Nevada,https://www.mountainproject.com/route/105732251/johnny-vegas,3.2,-1,Trad,5.7,4,,36.10333,-115.48677,459
Canary,"Upper Castle > Castle Rock > Tumwater Canyon > Leavenworth > Central-East Cascades, Wenatchee, & Leavenworth > Washington",https://www.mountainproject.com/route/105790788/canary,3.4,-1,Trad,5.8+,3,300,47.59968,-120.71235,460
Sweat,News Wall > Main Dome > Enchanted Rock State Natural Area > Texas,https://www.mountainproject.com/route/105862559/sweat,3.4,-1,Trad,5.7,1,,30.5077,-98.8198,461
El Cracko Diablo,South and East Faces > Devils Tower > Wyoming,https://www.mountainproject.com/route/105715556/el-cracko-diablo,3.3,-1,Trad,5.8,2,,44.58986,-104.71457,462
Battered Sandwich,Private Idaho > Lookout Point Area > Index > Skykomish Valley > Central-West Cascades & Seattle > Washington,https://www.mountainproject.com/route/106004538/battered-sandwich,3.4,-1,"Trad, TR",5.9,1,103,47.825,-121.55807,463
Wind Ridge,Wind Tower - SW Face > The Wind Tower > Eldorado Canyon State Park > Boulder > Colorado,https://www.mountainproject.com/route/105748361/wind-ridge,3.1,-1,Trad,5.7,4,,39.9315,-105.283,464
Cirque of the Towers Traverse,Pingora > Cirque of the Towers > Wind River Range > Wyoming,https://www.mountainproject.com/route/111399193/cirque-of-the-towers-traverse,3.8,-1,"Trad, Alpine",5.8,20,,42.7789,-109.226,465
Man Servant,Magoo Rock > East Side > Horseshoe Canyon Ranch > North-Central Arkansas > Arkansas,https://www.mountainproject.com/route/106048554/man-servant,3.3,-1,Sport,5.9+,1,55,36.00549,-93.2861,466
Celestial Groove,"Pearly Gates > Snow Creek Area > Icicle Creek > Leavenworth > Central-East Cascades, Wenatchee, & Leavenworth > Washington",https://www.mountainproject.com/route/105791954/celestial-groove,3.4,-1,Trad,5.9+,1,,47.53632,-120.71457,467
Left Hand Crack,Left Hand > First Buttress > Taylor Canyon > Gunnison > Colorado,https://www.mountainproject.com/route/105763875/left-hand-crack,3.4,-1,Trad,5.8+,1,,38.72589,-106.77013,468
Bitty Buttress,Bitty Buttress > Boulder Canyon > Boulder > Colorado,https://www.mountainproject.com/route/105748265/bitty-buttress,3.3,-1,Trad,5.8+,3,,40.0018,-105.3869,469
The Long Climb,(d) Northwest Recess > Tahquitz Rock > Tahquitz & Suicide Rocks > California,https://www.mountainproject.com/route/105798949/the-long-climb,3.2,-1,Trad,5.8,6,600,33.76079,-116.68392,470
First Class,Funarama > The Smoke Bluffs > Squamish > British Columbia > Canada > North America > International,https://www.mountainproject.com/route/106508167/first-class,3.4,-1,Trad,5.9-,1,70,49.7061,-123.1401,471
Jam Exam,Orange Sunshine area > Royal Columns > Tieton River > South-Central & Yakima > Washington,https://www.mountainproject.com/route/106022092/jam-exam,3.4,-1,Trad,5.9,1,60,46.72461,-120.80957,472
Wolf's Tooth,Twin Owls > Lumpy Ridge > Estes Park Valley > Colorado,https://www.mountainproject.com/route/105749089/wolfs-tooth,3.4,-1,Trad,5.8+,2,,40.4029,-105.5188,473
"Hush, Mama Thrush",Lower West Bolton > Bolton Area > 1. Northern Vermont > Vermont,https://www.mountainproject.com/route/106083774/hush-mama-thrush,3.5,-1,Trad,5.8,1,90,44.38535,-72.91031,474
Ritz Cracker,8) Ritz Cracker Area > Fern Buttress > New River Gorge Proper > The New River Gorge Region > West Virginia,https://www.mountainproject.com/route/106660073/ritz-cracker,3.4,-1,Trad,5.9,2,90,38.05999,-81.06543,475
Alphonse,a. Beginning of cliff to Gelsa > The Near Trapps > The Gunks > New York,https://www.mountainproject.com/route/105815363/alphonse,3.3,-1,Trad,5.8,2,150,41.73517,-74.19463,476
Apoplexy,a1. The Uberfall - left > The Trapps > The Gunks > New York,https://www.mountainproject.com/route/105840572/apoplexy,3.3,-1,Trad,5.9,1,90,41.737,-74.18943,477
Open Sesame,T-Wall East > The Tennessee Wall > Tennessee,https://www.mountainproject.com/route/105903272/open-sesame,3.4,-1,Trad,5.9-,1,95,35.07379,-85.40108,478
Sundial Crack,Nose Area > Looking Glass Rock > 1. Southern Mountains Region > North Carolina,https://www.mountainproject.com/route/105891892/sundial-crack,3.3,-1,Trad,5.8-,4,430,35.30474,-82.79538,479
Ginger Cracks,Ginger Buttress > (11) Juniper Canyon > Red Rocks > Southern Nevada > Nevada,https://www.mountainproject.com/route/105732260/ginger-cracks,3.2,-1,Trad,5.9,7,900,36.11213,-115.48829,480
Star Dancer,Middle Marker Area > Marker > Magna Carta > Mount Rushmore National Memorial > The Needles Of Rushmore > South Dakota,https://www.mountainproject.com/route/105714743/star-dancer,3.4,-1,"Sport, TR",5.8,1,105,43.88242,-103.46227,481
